,name,lat,lon
0,Bundesrepublik Deutschland,51.16766,10.42498
15,Hohndorf,50.611878999999995,12.135525999999999
25,Grünbach,48.698890000000006,9.842889999999999
26,Alt Ruppin,52.947222,12.849444
27,Buskow,52.867369999999994,12.81375
28,Krangen,52.985,12.854444
29,Stöffin,52.947222,12.849444
30,Temnitz,52.933333,12.666667
31,Lauterbach (Rügen),54.343132,13.500345000000001
32,Muglitz,54.34143100000001,13.552315
37,Flensburg,54.780469999999994,9.43522
39,Kiel,54.322683584791406,10.135858482122499
40,Kiel,54.3226843669499,10.1358638465405
41,Hansestadt Lübeck,53.86956,10.68758
42,Lübeck,53.86956,10.68713
43,Neumünster,54.074040000000004,9.98453
44,"Neumünster, Holstein",54.07402,9.984511999999999
45,Dithmarschen,54.147436752136755,9.111395811965812
46,"Albersdorf, Holstein",54.144318999999996,9.284703
47,Arkebek,54.160343000000005,9.248884
48,Averlak,53.9404157919798,9.18355818681993
49,Bargenstedt,54.0928582831399,9.14927636427873
50,"Barkenholm, Holstein",54.2375297612527,9.17432792628352
51,Barlt,54.00761,9.05485
52,Bergewöhrden,54.3185725084857,9.2107603713328
53,Brickeln,54.00854216433721,9.22108787887367
54,Brunsbüttel,53.897863,9.128617
55,"Buchholz, Dithmarschen",53.988560899646,9.22420527630123
56,Büsum,54.131280000000004,8.86236
57,Büsumer Deichhausen,54.13641,8.88819
58,"Bunsoh, Dithmarschen",54.1643385813622,9.325005711561001
59,Burg (Dithmarschen),54.000347,9.258527
60,Busenwurth,54.038159217082004,9.04110522413804
61,Dellstedt,54.238015699962304,9.36912670875148
62,"Delve, Holstein",54.303790273944905,9.25210461164061
63,Diekhusen-Fahrstedt,53.9386537931351,9.0259316920546
64,"Dingen, Dithmarschen",53.9577562994337,9.128844028642499
65,Dörpling,54.260708931503295,9.30188574040476
66,Eddelak,53.9459641812068,9.13729432814392
67,"Eggstedt, Holstein",54.05398569541511,9.25806160601902
68,Elpersbüttel,54.07122,9.04626
69,Epenwöhrden,54.11261999999999,9.0532
70,Fedderingen,54.2826805701412,9.131834969477671
71,Frestedt,54.024640000000005,9.17753
72,Friedrichsgabekoog,54.16263000000001,8.93788
73,"Friedrichskoog, Dithmarschen",54.012130000000006,8.90226
74,Gaushorn,54.1947086510896,9.2232829346712
75,"Glüsing, Dithmarschen",54.2737118317976,9.219364227300321
76,Großenrade,54.02169,9.22311
77,"Groven, Dithmarschen",54.3002302605276,8.98868155820352
78,"Gudendorf, Holstein",54.0254003841051,9.10774269545628
79,Hägen,54.255759999999995,9.150780000000001
80,Hedwigenkoog,54.17816,8.841330000000001
81,Heide / Holstein,54.195730000000005,9.09109
82,Hellschen-Heringsand-Unterschaar,54.205380000000005,8.84581
83,Helse,53.9721663762121,9.01170994930538
84,"Hemme, Holstein",54.277969999999996,9.0086
85,Hemmingstedt,54.14771,9.072519999999999
86,Hennstedt / Dithmarschen,54.283126048600394,9.162131190853131
87,Hillgroven,54.21881,8.87466
88,Hochdonn,54.02627,9.275910000000001
89,Hövede,54.245057250074396,9.29315716171805
90,Hollingstedt bei Delve,54.2904634059054,9.22706551993433
91,Immenstedt bei Albersdorf,54.176535910852,9.29970510447578
92,Kaiser-Wilhelm-Koog,53.94287551895471,8.926465994050831
93,Karolinenkoog,54.30072,8.9678
94,"Kleve, Dithmarschen",54.295526266465394,9.123377964453711
95,"Krempel, Holstein",54.3189,9.02875
96,Kronprinzenkoog,53.9714911507279,8.96161969595227
97,Krumstedt,54.069430000000004,9.17705
98,Kuden,53.968000470686796,9.19292736642632
99,"Lehe, Dithmarschen",54.343790000000006,9.02545
100,Lieth,54.1545,9.06058
101,"Linden, Holstein",54.252359999999996,9.18142
102,Lohe-Rickelshof,54.1871,9.064630000000001
103,"Lunden, Holstein",54.3329120891624,9.0237369667053
104,"Marne, Holstein",53.95112749061689,9.00880578749451
105,Marnerdeich,53.9476074804811,8.99369891577038
106,Meldorf (Holstein),54.09195,9.06927
107,"Neuenkirchen, Dithmarschen",54.23605,8.99007
108,"Neufeld, Dithmarschen",53.907430711702204,9.01639107458863
109,Neufelderkoog,53.906748117309,8.96890994005474
110,Nindorf bei Meldorf,54.087709999999994,9.10317
111,"Norddeich, Dithmarschen",54.21813,8.90007
112,Norderheistedt,54.24454,9.146410000000001
113,Norderwöhrden,54.19859,9.03232
114,Nordhastedt,54.172709999999995,9.1822
115,Odderade,54.13983,9.1905
116,Oesterdeichstrich,54.15919,8.89858
117,Offenbüttel,54.168904071094396,9.356921987181462
118,"Osterrade, Dithmarschen",54.187327355604104,9.35273103559569
119,Ostrohe,54.214810444152,9.137088806872999
120,Pahlen,54.267722329200794,9.289903642182981
121,"Quickborn, Dithmarschen",54.0116409355575,9.21656902723583
122,Ramhusen,53.949558518314,9.08320154838833
123,Rehm-Flehde-Bargen,54.30274,9.03695
124,Reinsbüttel,54.17742,8.915339999999999
125,"Sankt Annen, Dithmarschen",54.3500100864308,9.083306146717051
126,Sankt Michaelisdonn,53.9876896001851,9.117055720022051
127,Sarzbüttel,54.1175713056604,9.184230241608551
128,"Schafstedt, Dithmarschen",54.0798540473944,9.2937088343792
129,Schalkholz,54.2462679464539,9.25704658175055
130,"Schlichting, Dithmarschen",54.3168789312225,9.09705683732573
131,Schmedeswurth,53.9262482259261,9.04012996547493
132,"Schrum, Dithmarschen",54.185915602344,9.2518283441122
133,"Schülp, Dithmarschen",54.24205,8.92995
134,Stelle-Wittenwurth,54.25338000000001,9.06222
135,Strübbel,54.26368000000001,8.968160000000001
136,"Süderdeich, Dithmarschen",54.20061,8.90874
137,"Süderhastedt, Holstein",54.050369999999994,9.20955
138,Süderheistedt,54.236259999999994,9.14855
139,"Wöhrden, Dithmarschen",54.166219999999996,8.9963
140,Tellingstedt,54.219978052745894,9.282764272337712
141,Tielenhemme,54.2687005383462,9.365975113158859
142,Trennewurth,54.00025426069261,9.03024870746407
143,Volsemenhusen,53.9693549681431,9.07000172727379
144,"Wallen, Holstein",54.286615332734,9.26941821034433
145,Warwerort,54.13887,8.92057
146,Weddingstedt,54.24119,9.08817
147,Welmbüttel,54.197477375836,9.245936201458731
148,Wennbüttel,54.138877232781,9.323496968990131
149,Wesselburen,54.2119,8.92084
150,Wesselburener Deichhausen,54.175619999999995,8.93801
151,Wesselburenerkoog,54.239740000000005,8.87695
152,"Wesseln, Dithmarschen",54.20766999999999,9.075660000000001
153,Westerborstel,54.220193682448595,9.2604295178707
154,Westerdeichstrich,54.161319999999996,8.86023
155,Wiemerstedt,54.26781999999999,9.11235
156,Windbergen,54.0453,9.11905
157,Wolmersdorf,54.07715,9.10363
158,"Wrohm, Dithmarschen",54.2127447881436,9.37984816873626
159,Nordermeldorf,54.13136,8.99435
160,Tensbüttel-Röst,54.108979434948594,9.24357700678635
161,Süderdorf,54.2193617376415,9.34410840416507
162,Oesterwurth,54.21255,8.98353
163,Herzogtum Lauenburg,53.60132651515152,10.586605303030305
164,Albsfelde,53.680569999999996,10.69432
165,Alt Mölln,53.62249,10.65775
166,Aumühle bei Hamburg,53.528180000000006,10.31357
167,Bäk bei Ratzeburg,53.71405,10.78621
168,Bälau,53.616719999999994,10.62172
169,"Basedow, Kreis Herzogtum Lauenburg",53.4174161542424,10.5836433227539
170,"Basthorst, Kreis Herzogtum Lauenburg",53.578030000000005,10.47128
171,Behlendorf,53.69922,10.66799
172,Berkenthin,53.73066,10.64776
173,Besenthal,53.53021,10.74237
174,Bliestorf,53.768809999999995,10.60245
175,Börnsen,53.46926,10.28125
176,Borstorf,53.61371,10.56475
177,"Breitenfelde, Kreis Herzogtum Lauenburg",53.60683,10.63049
178,"Bröthen, Kreis Herzogtum Lauenburg",53.48024,10.66704
179,Brunsmark,53.61715,10.74933
180,"Brunstorf, Kreis Herzogtum Lauenburg",53.49403,10.4219
181,Buchholz bei Ratzeburg,53.73093000000001,10.7453
182,"Buchhorst, Kreis Herzogtum Lauenburg",53.38633000000001,10.564689999999999
183,"Büchen, Lauenburg",53.48324,10.6135400000001
184,Dahmker,53.587819999999994,10.44471
185,"Dalldorf, Kreis Herzogtum Lauenburg",53.43459,10.61192
186,Dassendorf,53.49119,10.37336
187,Düchelsdorf,53.73666,10.58349
188,Duvensee,53.69265,10.56852
189,Einhaus bei Ratzeburg,53.71399,10.73405
190,"Elmenhorst, Kreis Herzogtum Lauenburg",53.54535,10.53587
191,Escheburg,53.46655,10.309239999999999
192,Fitzen,53.494519999999994,10.64661
193,Fredeburg bei Ratzeburg,53.67272,10.72476
194,Fuhlenhagen,53.5747021129107,10.5261449996948
195,Geesthacht,53.43018000000001,10.3741
196,Giesensdorf bei Ratzeburg,53.68851,10.71397
197,Göldenitz bei Berkenthin,53.722069999999995,10.631910000000001
198,"Göttin, Kreis Herzogtum Lauenburg",53.53398000000001,10.702919999999999
199,Grabau bei Schwarzenbek,53.51368000000001,10.51962
200,Grambek,53.57143000000001,10.68256
201,Grinau,53.77624,10.5483
202,Groß Boden,53.752790000000005,10.452869999999999
203,Groß Disnack,53.74321,10.69239
204,Groß Grönau,53.7953,10.755939999999999
205,Groß Pampau,53.522240000000004,10.561639999999999
206,Groß Sarau,53.769330000000004,10.73518
207,Groß Schenkenberg,53.79517,10.56518
208,Grove,53.5287,10.49472
209,"Gudow, Kreis Herzogtum Lauenburg",53.55562,10.77045
210,"Gülzow, Kreis Herzogtum Lauenburg",53.44164,10.490789999999999
211,Güster,53.53825,10.6808
212,Hamfelde (Herzogtum Lauenburg),53.596090000000004,10.44776
213,Hamwarde,53.452980000000004,10.42135
214,Harmsdorf bei Ratzeburg,53.700140000000005,10.7261
215,Havekost bei Schwarzenbek,53.53996,10.47288
216,Hohenhorn,53.47574,10.3663
217,"Hollenbek, Kreis Herzogtum Lauenburg",53.59185,10.8196399999999
218,Hornbek,53.56041,10.64644
219,"Horst, Kreis Herzogtum Lauenburg",53.63351,10.76604
220,Juliusburg,53.4164966852724,10.5067940810394
221,Kankelau,53.54939,10.56789
222,Kasseburg bei Trittau,53.56703,10.41496
223,"Kastorf, Holstein",53.74952,10.571069999999999
224,Kittlitz bei Ratzeburg,53.66417,10.91819
225,Klein Pampau,53.51095,10.57483
226,Klein Zecher,53.57694,10.87314
227,Klempau,53.7644935161454,10.6637504928589
228,"Klinkrade, Kreis Herzogtum Lauenburg",53.71621999999999,10.55107
229,"Koberg, Kreis Herzogtum Lauenburg",53.63899,10.52462
230,Köthel (Herzogtum Lauenburg),53.609719999999996,10.50814
231,"Kollow, Kreis Herzogtum Lauenburg",53.46375,10.46009
232,Kröppelshagen-Fahrendorf,53.48588,10.3156
233,Krüzen,53.402719999999995,10.5268
234,"Krukow, Kreis Herzogtum Lauenburg",53.41916,10.48076
235,Krummesse,53.78038000000001,10.64071
236,Kuddewörde,53.58706,10.40043
237,Kühsen,53.68184,10.61373
238,Kulpin bei Ratzeburg,53.710269999999994,10.69562
239,Labenz,53.70939,10.52624
240,Langenlehsten,53.50169,10.74112
241,Lankau,53.669180000000004,10.66792
242,"Lanze, Kreis Herzogtum Lauenburg",53.3872275808749,10.6048541474628
243,Lauenburg / Elbe,53.37582,10.54703
244,"Lehmrade, Holstein",53.59474,10.75208
245,Linau,53.64476,10.47187
246,Lüchow bei Sandesneben,53.6908,10.529539999999999
247,Lütau,53.435269999999996,10.548960000000001
248,Mechow bei Ratzeburg,53.71745,10.8024
249,Möhnsen,53.560190000000006,10.46574
250,"Mölln, Kreis Herzogtum Lauenburg",53.63001,10.692689999999999
251,Mühlenrade,53.596090000000004,10.4883
252,"Müssen, Kreis Herzogtum Lauenburg",53.492430000000006,10.5644
253,Mustin bei Ratzeburg,53.68561999999999,10.88557
254,Niendorf bei Berkenthin,53.70231,10.62614
255,Niendorf / Stecknitz,53.58849,10.61105
256,Nusse,53.65911,10.577810000000001
257,Panten,53.66324,10.61828
258,Pogeez,53.750319999999995,10.72873
259,Poggensee bei Nusse,53.6428,10.57935
260,Ratzeburg,53.69955,10.7596
261,Ritzerau,53.66339,10.56713
262,Römnitz,53.71079,10.76928
263,Rondeshagen,53.75363,10.62894
264,Roseburg,53.5325,10.62703
265,Sahms,53.52475,10.53289
266,Salem bei Ratzeburg,53.65699,10.82756
267,Sandesneben,53.68798,10.49639
268,Schiphorst,53.70783,10.46135
269,Schmilau,53.6623048649761,10.7579422973871
270,Schnakenbek,53.38511,10.500210000000001
271,Schönberg (Kreis Herzogtum Lauenburg),53.68176,10.42929
272,Schretstaken,53.584430000000005,10.54867
273,Schürensöhlen,53.76347,10.471860000000001
274,"Schulendorf, Lauenburg",53.473980000000005,10.55952
275,Schwarzenbek,53.50176999999999,10.47992
276,"Seedorf, Kreis Herzogtum Lauenburg",53.61925,10.8665
277,Siebenbäumen,53.74981999999999,10.52843
278,"Siebeneichen, Kreis Herzogtum Lauenburg",53.511390000000006,10.61771
279,Sierksrade,53.73515,10.60045
280,Sirksfelde,53.66528,10.50928
281,"Steinhorst, Kreis Herzogtum Lauenburg",53.720580000000005,10.48532
282,Sterley,53.62066,10.81868
283,Stubben bei Bad Oldesloe,53.7336,10.429739999999999
284,Talkau,53.57464,10.57174
285,"Tramm, Kreis Herzogtum Lauenburg",53.563559999999995,10.61571
286,Walksfelde,53.63081,10.5758
287,Wangelau,53.454609999999995,10.550310000000001
288,Wentorf bei Hamburg,53.4910507255367,10.2520558834076
289,Wentorf (Amt Sandesneben),53.68311,10.46705
290,Wiershop,53.442401000000004,10.451459
291,Witzeeze,53.45312,10.60708
292,Wohltorf,53.51973,10.2784
293,"Woltersdorf, Kreis Herzogtum Lauenburg",53.578109999999995,10.63904
294,Worth bei Geesthacht,53.46975,10.41124
295,Ziethen bei Ratzeburg,53.691159999999996,10.80862
296,Nordfriesland,54.635422999999996,8.724075
297,Achtrup,54.789255246,9.026371109480001
298,Ahrenshöft,54.5601031015988,9.06629189992491
299,Ahrenviöl,54.531212102859605,9.20695471762847
300,Ahrenviölfeld,54.5336026278284,9.276258975259768
301,Alkersum,54.7088051645502,8.50931243002416
302,Almdorf,54.5823747614052,9.01391118764879
303,Arlewatt,54.53764418889771,9.082039149051349
304,Aventoft,54.89982060035089,8.810946622493631
305,Bargum,54.703018106222295,8.94391626119615
306,Behrendorf bei Husum,54.5650983219065,9.222938418388381
307,Bohmstedt,54.581209702710105,9.04379300773145
308,Bondelum,54.556519572290604,9.26667653024198
309,Bordelum,54.63285150705671,8.93233393473619
310,Borgsum,54.7023309736,8.45862859543
311,Bosbüll,54.8241884491,8.8613271188
312,Braderup bei Niebüll,54.8356161959,8.8904983834
313,Bramstedtlund,54.840158071757095,9.087009376287439
314,Bredstedt,54.617217071618605,8.97173076868058
315,Breklum,54.6034115885696,8.983416482806222
316,Dagebüll,54.7285687938,8.70576178431
317,"Drage, Nordfriesland",54.35561,9.15708
318,Drelsdorf,54.6050071281228,9.036927223205579
319,Dunsum,54.731491685200005,8.4253262883
320,Elisabeth-Sophien-Koog,54.5100442584,8.87977814079
321,Ellhöft,54.88877628109999,8.95747905374
322,Fresendelf,54.39329185864371,9.24855873132292
323,Friedrichstadt an der Eider,54.3750907340393,9.0913538370846
324,Friedrich-Wilhelm-Lübke-Koog,54.8628104654,8.62504290342
325,"Garding, Kirchspiel",54.3186023078094,8.779349896740941
326,Garding,54.3284176784701,8.78681403739442
327,"Goldebek, Nordfriesland",54.681111692518705,9.149629622697839
328,Goldelund,54.6786220371778,9.10900153219701
329,"Gröde, Hallig",54.6331128925,8.72548138499
330,Grothusenkoog,54.3010757049099,8.75887860698703
331,Haselund,54.591722782024796,9.18273277580739
332,Hattstedt,54.5312215281043,9.021761195307409
333,Hattstedtermarsch,54.543625594686496,8.97970174593919
334,Högel,54.6420466057864,9.058582708239571
335,Hörnum (Sylt),54.7573271288,8.28744331058
336,Holm bei Süderlügum,54.831210419399994,8.86064539706
337,"Hooge, Hallig",54.56596999999999,8.550049000000001
338,Horstedt bei Husum,54.525602622014,9.068980143910089
339,Hude bei Husum,54.3879015358767,9.213594125157039
340,Humptrup,54.86316062979999,8.86437823773
341,"Husum, Nordsee",54.485281036494705,9.05329324448649
342,"Immenstedt, Nordfriesland",54.5382930036847,9.14935964345168
343,Joldelund,54.6533733820092,9.136038869619382
344,Kampen (Sylt),54.956531000000005,8.345022
345,Karlum,54.8285962451,8.97507379805
346,Katharinenheerd,54.335360127762,8.8292713944434
347,Klanxbüll,54.862188089300005,8.67932727337
348,Klixbüll,54.7936302392,8.91007589101
349,Koldenbüttel,54.3876945920903,9.06775169218127
350,Kolkerheide,54.62027888543779,9.13054101169111
351,Kotzenbüll,54.333408154791606,8.903345290255482
352,Ladelund,54.8408835926,9.02341043353
353,Langeneß,54.639533820173504,8.60183322617717
354,Langenhorn bei Husum,54.6675705675993,8.916203683614711
355,Leck,54.7718980373985,8.97466555293232
356,Lexgaard,54.8324648731,8.93914292609
357,"List, Sylt",55.0186629678,8.43158119972
358,Löwenstedt,54.621353532897395,9.17072854936124
359,Lütjenholm,54.6841190793887,9.02116857469083
360,"Midlum, Föhr",54.7153416493,8.52213570531
361,Mildstedt,54.4606076571678,9.09520678365771
362,"Nebel, Amrum",54.6504285943,8.35379624422
363,Neukirchen bei Niebüll,54.8663281105,8.73749847567
364,Nieblum,54.692166586000006,8.49089288767
365,Niebüll (Schleswig),54.7881584621,8.82960150992
366,"Norddorf, Amrum",54.6795087518,8.33279454763
367,Norderfriedrichskoog,54.40178312816871,8.90677802408279
368,Nordstrand,54.49212772905021,8.86499707741731
369,Norstedt,54.586175154912794,9.12920191884042
370,Ockholm,54.6664925729276,8.81678357720376
371,Oevenum,54.7101223336,8.53081131037
372,Oldenswort,54.37255005707271,8.940871406030551
373,Oldersbek,54.4429505269028,9.164604918604528
374,Olderup,54.5380853498475,9.11192767465655
375,Oldsum,54.730951949885394,8.445557000133471
376,Ostenfeld (Husum),54.46339049828529,9.231034518724119
377,Osterhever,54.3843665024602,8.764372665119058
378,Augustenkoog,54.3882384446641,8.73860065979947
379,Oster-Ohrstedt,54.5144870510452,9.226937444453869
380,Pellworm,54.516231519499996,8.64503389001
381,Poppenbüll,54.36090446984,8.76124655051221
382,"Ramstedt, Nordfriesland",54.401993123503296,9.17002298081461
383,Rantrum bei Husum,54.44043146905889,9.129364044910108
384,Rantum (Sylt),54.8484877909,8.29269513543
385,Reußenköge,54.6030566757119,8.90520271999829
386,Risum-Lindholm,54.7548298165302,8.85923295771524
387,Rodenäs,54.8882625475,8.70087077618
388,Sankt Peter-Ording,54.3070963528309,8.63601868195536
389,Schobüll bei Husum,54.51276495667479,8.99891615057532
390,Schwabstedt,54.394941688419294,9.18558851028029
391,Schwesing,54.4948242333665,9.135028870349561
392,Seeth bei Husum,54.36643,9.16668
393,Simonsberg bei Husum,54.4335176919981,8.977058158760698
394,Sönnebüll,54.631051252738,8.9958766847849
395,Sollwitt,54.592296229454796,9.23056326806547
396,Sprakebüll,54.775692703999994,9.07702194452
397,Stadum,54.7360393374135,9.050296771097269
398,Stedesand,54.7388438555245,8.9291484659496
399,Struckum,54.59358296015721,8.99120628833772
400,Süderende auf Föhr,54.7257981482,8.440443218310001
401,Süderhöft,54.3820098677672,9.24237355733458
402,Süderlügum,54.872320646700004,8.908027166130001
403,Südermarsch bei Husum,54.430976991357795,9.07681420589033
404,Sylt-Ost,54.8613563404,8.41161349471
405,"Tating, Eiderstedt",54.3246378596377,8.70513809068192
406,Tetenbüll,54.352081941006006,8.828052330446141
407,Tinningstedt,54.8116271137369,8.93166266636857
408,Tönning (Nordseebad),54.3180909829608,8.93713844163407
409,Tümlauer Koog,54.338807457354605,8.6495271806239
410,Uelvesbüll,54.415457902615,8.92619744086806
411,Uphusum bei Süderlügum,54.8389106196,8.85887490921
412,Utersum,54.7147402425,8.40652400311
413,Viöl,54.5688544559706,9.182817265391359
414,Vollerwiek,54.2912712920569,8.797920170855551
415,Vollstedt,54.622626145887395,9.02867540717126
416,Welt,54.3018973944765,8.7953083698273
417,Wenningstedt (Sylt),54.937194999999996,8.324050999999999
418,Westerhever,54.3818446236251,8.68027602477063
419,Westerland,54.907748,8.308755
420,Wester-Ohrstedt,54.5077064685643,9.182733969336189
421,Westre,54.856226528,8.987715595960001
422,Winnert bei Husum,54.433335940015205,9.19910416150633
423,"Wisch, Nordfriesland",54.408440784057895,9.15410809362475
424,Witsum,54.698129125467396,8.44161884674735
425,Wittbek bei Husum,54.4730463467327,9.20209147179667
426,"Wittdün, Amrum",54.627099476000005,8.38922956641
427,Witzwort,54.400063385980395,8.984527039956982
428,Wobbenbüll,54.5232092065271,8.993515253059382
429,Wrixum,54.699762274099996,8.54672753866
430,Wyk auf Föhr,54.6875716901,8.55363690908
431,Galmsbüll,54.765320475069295,8.70212808251381
432,Emmelsbüll-Horsbüll,54.811696102089904,8.68802034910201
433,Enge-Sande,54.7265176859968,8.98085974411973
434,Ostholstein,54.17666285714285,10.84762
435,Ahrensbök,54.0102,10.5717
436,Altenkrempe,54.132819999999995,10.82612
437,Bad Schwartau,53.92105,10.67955
438,Beschendorf,54.18196999999999,10.878730000000001
439,Bosau,54.1043615627237,10.430157712531098
440,"Dahme, Holstein",54.22062,11.0848100000001
441,Damlos,54.242540000000005,10.90765
442,Eutin,54.13765,10.61616
443,Göhl,54.28521,10.94075
444,"Gremersdorf, Holstein",54.33308,10.93062
445,Grömitz,54.15113,10.956489999999999
446,Großenbrode,54.36949,11.08533
447,"Grube, Holstein",54.23522,11.03525
448,"Harmsdorf, Holstein",54.2418,10.8298
449,"Heiligenhafen, Holstein",54.37243,10.97918
450,"Heringsdorf, Holstein",54.300776,11.004684
451,Kabelhorst,54.216480000000004,10.9231
452,Kasseedorf,54.165980000000005,10.72303
453,Kellenhusen (Ostsee),54.193259999999995,11.05901
454,Lensahn,54.21955,10.883469999999999
455,Malente,54.173637119805896,10.558924946618099
456,Manhagen bei Lensahn,54.19505,10.9143
457,Neukirchen bei Oldenburg in Holstein,54.32357,11.018930000000001
458,Neustadt in Holstein,54.10685,10.81353
459,Oldenburg in Holstein,54.2916939035514,10.8867433692694
460,Ratekau,53.94908,10.73622
461,Riepsdorf,54.225680000000004,10.96994
462,Schashagen,54.1343,10.88321
463,Schönwalde am Bungsberg,54.18761,10.75563
464,Sierksdorf,54.06665,10.768880000000001
465,Stockelsdorf,53.88788,10.64507
466,Süsel,54.07735,10.71555
467,Timmendorfer Strand,53.997530000000005,10.780619999999999
468,Wangels,54.272690000000004,10.766055999999999
469,Scharbeutz,54.0352,10.7512
470,Fehmarn,54.43555,11.19698
471,Pinneberg,53.727893877551026,9.697959795918369
472,"Appen, Kreis Pinneberg",53.65964,9.74216
473,Barmstedt,53.789368210789696,9.77226791126724
474,"Bevern, Holstein",53.755650936352794,9.77098447425361
475,Bilsen,53.76965,9.87624
476,Bönningstedt,53.66529,9.91382
477,Bokel bei Elmshorn,53.866715450148895,9.73416726346494
478,Bokholt-Hanredder,53.788069668807495,9.73618281228538
479,Borstel-Hohenraden,53.68402,9.8061
480,Brande-Hörnerkirchen,53.855125414160604,9.705130339221961
481,Bullenkuhlen,53.7663981319767,9.748536396455721
482,"Ellerbek, Kreis Pinneberg",53.6572,9.86975
483,Ellerhoop,53.727510167350104,9.770745087099039
484,Elmshorn,53.75529730085611,9.65623957259651
485,Groß Nordende,53.70191074206161,9.64959082348352
486,Groß Offenseth-Aspern,53.8180035553392,9.73184702141281
487,"Halstenbek, Holstein",53.63411,9.8376
488,Haselau,53.6617753339703,9.620067972373919
489,Haseldorf,53.6343,9.596260000000001
490,Hasloh,53.69353,9.91165
491,Heede bei Barmstedt,53.783780787891,9.80737869782444
492,Heidgraben,53.70966816923929,9.678142938447051
493,Heist,53.654933178738396,9.65669800682073
494,Helgoland,54.1828640617142,7.885599148826599
495,Hemdingen,53.762924383598296,9.837159264516789
496,Hetlingen,53.60709,9.63723
497,"Holm, Kreis Pinneberg",53.62151,9.6715
498,Klein Nordende,53.71136,9.64729
499,Klein Offenseth-Sparrieshoop,53.804787601266604,9.69322656435962
500,Kölln-Reisiek,53.7574101331,9.69775400118
501,Kummerfeld bei Pinneberg,53.693259999999995,9.79226
502,Seester,53.717382897957705,9.597240585517868
503,"Langeln, Kreis Pinneberg",53.7949216188937,9.852632257771448
504,Lutzhorn,53.832995330501795,9.76821576399799
505,Moorrege bei Uetersen,53.66774025294029,9.65997231347566
506,Neuendeich bei Uetersen,53.674534781917494,9.588158849310929
507,Osterhorn,53.866845932481205,9.70164480860711
508,Pinneberg,53.662819999999996,9.79665
509,Prisdorf,53.68212,9.769969999999999
510,"Quickborn, Kreis Pinneberg",53.73186,9.903960000000001
511,Raa-Besenbek,53.755608119657204,9.61138901455398
512,Rellingen,53.65161,9.829419999999999
513,Schenefeld bei Hamburg,53.60085,9.822569999999999
514,Seestermühe,53.7040542593132,9.567326578927029
515,Seeth-Ekholt,53.7412596906038,9.73015052421089
516,"Tangstedt, Kreis Pinneberg",53.6777,9.85641
517,Tornesch,53.6973296003241,9.71218419415956
518,Uetersen,53.6934006954926,9.654208916854909
519,Wedel,53.58367,9.69817
520,Westerhorn,53.8524564197053,9.67877294178487
521,Plön,54.159130876399495,10.411255633831098
522,Ascheberg (Holstein),54.150896960812204,10.3449319704826
523,Barmissen,54.20503982768889,10.1753696967095
524,Barsbek,54.4050867592085,10.323009064793698
525,Behrensdorf (Ostsee),54.3503189074916,10.604865527152999
526,Belau bei Wankendorf,54.098652603397596,10.2605556015491
527,Bendfeld,54.3669488826277,10.4205361962319
528,Blekendorf,54.28224,10.65836
529,Bönebüttel,54.07957,10.0593
530,Bösdorf bei Plön,54.1401533602515,10.4899364556551
531,Boksee,54.2431576781301,10.1300171032006
532,Bothkamp,54.20354689489079,10.1342241480405
533,Brodersdorf,54.3862106596134,10.248747295141301
534,"Dannau, Kreis Plön",54.2409577037115,10.541095337271699
535,"Dersau, Kreis Plön",54.117648755843106,10.3363038663387
536,"Dobersdorf, Holstein",54.3183126508236,10.2812731027603
537,Dörnick,54.16313539520821,10.3619337145805
538,"Fahren, Holstein",54.3502641931476,10.337811386585301
539,Fiefbergen,54.3793174147247,10.3430597990752
540,Giekau,54.3180060109664,10.5051403254271
541,Grebin,54.1980695425125,10.4937161266804
542,Großbarkau,54.2250887703464,10.1675591040581
543,Großharrie,54.11898000000001,10.04895
544,Heikendorf,54.3723325826753,10.2087811589242
545,Helmstorf bei Lütjenburg,54.2886150877064,10.5964923411608
546,Högsdorf,54.2519,10.61575
547,Höhndorf,54.3713472684405,10.370736843347599
548,Hohenfelde bei Kiel,54.3702654378341,10.4959210217
549,Hohwacht (Ostsee),54.3204513980808,10.670928138065301
550,Honigsee,54.2283689504467,10.1880377698869
551,"Kalübbe, Holstein",54.11826,10.281260000000001
552,Kirchbarkau,54.2119111247408,10.141199232583698
553,Kirchnüchel,54.20375,10.680530000000001
554,Klamp,54.29636,10.53426
555,Klausdorf / Kiel,54.3082189315693,10.2147724241018
556,Klein Barkau,54.2211518488187,10.1346003278548
557,Kletkamp,54.24958,10.63857
558,Köhn,54.3455383535706,10.4551380336286
559,Krokau,54.4026005017548,10.3416403591634
560,"Krummbek, Holstein",54.3785490147719,10.3993004769088
561,Kühren bei Preetz,54.20187118074511,10.2604960411788
562,Laboe,54.404258999999996,10.221474
563,"Lammershagen, Holstein",54.2746130033627,10.4440013825894
564,Lebrade,54.216738,10.421914
565,Lehmkuhlen bei Preetz,54.22348156001161,10.3644041373785
566,Löptin,54.17552,10.2157999999999
567,"Lütjenburg, Holstein",54.292049115078704,10.5901992082596
568,Lutterbek,54.391264657795496,10.2765577793122
569,Martensrade,54.2796290587768,10.3929817438126
570,Mönkeberg,54.348735479969996,10.1910175591708
571,Mucheln,54.246461343322295,10.4427394032479
572,Nehmten,54.094751815682706,10.3933839563846
573,Nettelsee,54.17578,10.19231
574,Panker,54.330405302489005,10.573104938864802
575,Passade,54.3648289245623,10.316658815741599
576,Plön / Holstein,54.1600017261745,10.4108647018672
577,Pohnsdorf bei Preetz,54.2396253724473,10.249255573749599
578,Postfeld,54.2104961349701,10.2126353740693
579,Prasdorf,54.380256263734296,10.2959488093854
580,"Preetz, Holstein",54.232843923379605,10.270543596148501
581,Probsteierhagen,54.362274,10.286562
582,Raisdorf,54.279812274967206,10.2436296403409
583,Rantzau,54.237158878626005,10.5153025448323
584,"Rastorf, Holstein",54.2724031142712,10.2888664364815
585,Rathjensdorf,54.18495669307671,10.4313694800615
586,Rendswühren,54.065709999999996,10.1655900000001
587,Ruhwinkel,54.093284206632205,10.2197343919992
588,Schellhorn bei Preetz,54.23062865938971,10.2925786137581
589,Schillsdorf,54.116780000000006,10.12358
590,Schlesen,54.3216456473495,10.3341166436672
591,Schönberg (Holstein),54.392807787445896,10.3751887589694
592,"Schönkirchen, Holstein",54.33914941795901,10.2225421130657
593,Schwartbuck,54.357317244568605,10.479888787865699
594,"Selent, Holstein",54.2905415285635,10.427672764658999
595,Stakendorf,54.3890151470185,10.4210712969304
596,Stein bei Laboe,54.414707974774196,10.2691422611476
597,Stolpe bei Neumünster,54.1265922758671,10.223930708003
598,Stoltenberg,54.34638319700971,10.3544162720442
599,Tröndel,54.336830000000006,10.51131
600,Tasdorf,54.09539309139979,10.0294631000042
601,Wahlstorf bei Preetz,54.195519754283,10.3087221592665
602,Wankendorf,54.11254,10.203669999999999
603,Warnau bei Nettelsee,54.18780388864389,10.161353813502199
604,Wendtorf,54.4108728715248,10.2955345273019
605,Wisch bei Kiel,54.408992650187905,10.345203673839698
606,Wittmoldt,54.17481186428039,10.3500159893751
607,Fargau-Pratjau,54.318364278738,10.377427613735199
608,Rendsburg-Eckernförde,54.279116265060246,9.788656024096383
609,Achterwehr,54.3134100505356,9.9659076839686
610,Ahlefeld bei Rendsburg,54.4035,9.679310000000001
611,Alt Duvenstedt,54.360209999999995,9.645589999999999
612,Altenhof bei Eckernförde,54.435390000000005,9.87378
613,Altenholz,54.40164577006821,10.1185690820218
614,Arpsdorf,54.03945764666471,9.85890795631409
615,Ascheffel,54.4308049913838,9.698235570403089
616,Aukrug,54.077083551911294,9.786281243519788
617,Bargstall,54.2591806138299,9.4601233317906
618,"Bargstedt, Holstein",54.1628386745617,9.769748102381689
619,Barkelsby,54.5012194223,9.83571292758
620,Beldorf,54.1314592535068,9.351818413978382
621,"Bendorf, Holstein",54.087289598028406,9.382885637879381
622,Beringstedt,54.1107011285131,9.53487465853978
623,Bissee,54.1906725239814,10.1104041203314
624,Bistensee,54.39836,9.70171
625,"Blumenthal, Holstein",54.2260684158409,10.002985870838199
626,Böhnhusen,54.2239373716,10.0552116111
627,Bokel bei Rendsburg,54.217561580682705,9.79124350393373
628,Bordesholm,54.1734274524028,10.0354430838879
629,Borgdorf-Seedorf,54.1774425005624,9.87857140744285
630,Borgstedt bei Rendsburg,54.333289223207906,9.70985911930148
631,"Bornholt, Holstein",54.1002834373528,9.3347728431225
632,Bovenau,54.3295480172577,9.828958114981711
633,Brammer bei Rendsburg,54.1997352124029,9.764275105243481
634,Bredenbek bei Rendsburg,54.324768766539,9.868697053194099
635,Breiholz,54.206013994645794,9.523502309674448
636,Brekendorf,54.4216120082,9.62902384853
637,Brinjahe,54.1683989678683,9.632070431666369
638,"Brodersby bei Kappeln, Schlei",54.6346665037,9.97967110872
639,"Brügge, Holstein",54.174187319375,10.0715697571094
640,Büdelsdorf,54.314080000000004,9.66324
641,Bünsdorf,54.36693,9.736369999999999
642,Christiansholm,54.320434189657604,9.406801687126789
643,Dänischenhagen,54.424552417292794,10.1276704877616
644,Dätgen,54.181080433404,9.93373371804313
645,Damendorf,54.4235236586372,9.73521049222564
646,Damp,54.5822542146,10.0198961973
647,Dörphof,54.616464076999996,9.96736781597
648,Eckernförde,54.470780266800006,9.834613221880002
649,Ehndorf,54.05245,9.894630000000001
650,"Eisendorf, Holstein",54.1934415191013,9.86923128510074
651,Ellerdorf,54.193077456658706,9.84013468170718
652,Elsdorf-Westermühlen,54.258090363738496,9.522776321129811
653,Embühren,54.1712934904089,9.5943076109457
654,Emkendorf bei Rendsburg,54.26061947657411,9.851865521073401
655,"Felde, Holstein",54.2972792118201,9.927402363663349
656,Felm,54.409974528290995,10.057776144147
657,Fleckeby,54.482358286172,9.694066747041688
658,Flintbek,54.24531491023439,10.072269341349699
659,Fockbek,54.304827096840896,9.601419420486131
660,Friedrichsgraben,54.27152930396979,9.419327603226339
661,Friedrichsholm,54.3039381695245,9.42753583336417
662,Gammelby bei Eckernförde,54.5002086912298,9.79586261412715
663,Gettorf,54.406917204077395,9.97400405108938
664,Gnutz,54.135276445512105,9.8224971457775
665,Gokels,54.112543667420205,9.46827242076398
666,Grauel,54.0714455962366,9.67370759006024
667,Grevenkrug,54.2133186047,10.0107620434
668,Groß Buchwald,54.162083522502,10.08378654862
669,Groß Vollstedt,54.234156474083,9.86765896821577
670,Groß Wittensee,54.404633999999994,9.769846000000001
671,Güby,54.485906532865705,9.666884496800382
672,Haale,54.1741974918379,9.548382157640448
673,Haby,54.395807605948896,9.82008951008325
674,Hamdorf bei Rendsburg,54.2223398014835,9.5187770754099
675,Hamweddel,54.1904975107403,9.618502477364538
676,Hanerau-Hademarschen,54.1276326183113,9.41093886196615
677,Haßmoor,54.29201467446529,9.819137877225929
678,Heinkenborstel,54.131646058823996,9.750884349897401
679,Hörsten bei Rendsburg,54.2270015132436,9.578479827886381
680,Hoffeld bei Bordesholm,54.18606941437861,9.993986861353552
681,Hohenwestedt,54.0911316781334,9.6489895487261
682,Hohn bei Rendsburg,54.2986464637591,9.50098477447573
683,Holtsee,54.399064838759,9.854920005798391
684,Holzbunge,54.38121999999999,9.70925
685,Holzdorf bei Eckernförde,54.554589828400005,9.89657895565
686,Hütten bei Ascheffel,54.43699930788421,9.71956114372825
687,Hummelfeld,54.462603,9.718161
688,"Jahrsdorf, Holstein",54.0656195601616,9.63239754791738
689,Jevenstedt,54.232303990945795,9.664026872759619
690,"Karby, Schwansen",54.623173021899994,9.974792170519999
691,Klein Wittensee,54.390983999999996,9.734832
692,Königshügel,54.335217396185506,9.4691071212215
693,Kosel bei Eckernförde,54.506653,9.754782
694,Krogaspe,54.1317064580141,9.92878700848104
695,Kronshagen,54.3314414549232,10.0852312356234
696,Krummwisch,54.3351704141464,9.89756902158266
697,"Langwedel, Holstein",54.211774104327205,9.930904786234679
698,Lindau bei Kiel,54.385024,9.904678
699,Lohe-Föhrden,54.334179080473604,9.544460700398119
700,"Loop, Holstein",54.147916938868505,9.949261824732599
701,Loose bei Eckernförde,54.5196078794,9.88896148204
702,Lütjenwestedt,54.140728347533795,9.489010442847439
703,Luhnstedt,54.1673276012344,9.69853818560199
704,Goosefeld,54.43225,9.81165
705,Meezen,54.0528439633348,9.705650017218598
706,Melsdorf,54.3173160629321,10.0300869107247
707,Mielkendorf,54.2846664242755,10.040668225288401
708,Mörel bei Hohenwestedt,54.1124888716996,9.72631263311197
709,Molfsee,54.264562612084504,10.0659111648799
710,Mühbrook,54.157039032308,10.010167287236
711,Negenharrie,54.163430000000005,10.054210000000001
712,Neudorf-Bornstein,54.43212242680001,9.944119769330001
713,Neu Duvenstedt,54.35545,9.69672
714,Neuwittenbek,54.36841,10.02097
715,Nienborstel,54.14216247560929,9.61841406996538
716,Nindorf bei Neumünster,54.13109757623779,9.701474707081811
717,Noer,54.46138034609999,10.0052580416
718,Nortorf bei Neumünster,54.168813001762,9.85476680243567
719,Nübbel bei Rendsburg,54.272038,9.620339
720,Oldenbüttel bei Hanerau-Hademarschen,54.1700278433076,9.451833161711711
721,Oldenhütten,54.1578673083651,9.737510632231698
722,Osdorf bei Kiel,54.427853538,10.015675741399999
723,Ostenfeld (Rendsburg),54.316529101277,9.78185584247118
724,Osterby bei Eckernförde,54.4543533813167,9.7543031265459
725,Osterrönfeld,54.2904264612821,9.69555040299898
726,Osterstedt,54.11061,9.57374000000004
727,Ottendorf bei Kiel,54.340248087518795,10.044416061043801
728,Owschlag,54.392016679997795,9.6017544269485
729,Padenstedt,54.049530000000004,9.91733
730,Prinzenmoor,54.2226455089987,9.455396608954231
731,Quarnbek,54.330030525697296,9.984011253714618
732,Rade bei Hohenwestedt,54.10245874560229,9.71676598067571
733,Rade bei Rendsburg,54.3313624363921,9.74501885617319
734,Reesdorf bei Kiel,54.190785515794296,10.0600516810471
735,Remmels,54.1171056723625,9.65157623167325
736,Rendsburg,54.30380300303229,9.669857934670462
737,Rickert,54.33033019203239,9.66223783934656
738,Rieseby,54.541648413500006,9.812959013939999
739,Rodenbek bei Kiel,54.2761634572153,10.0178687781096
740,Rumohr,54.2552618791485,10.0246098399163
741,Schacht-Audorf,54.3125834773629,9.71555070634366
742,"Schierensee, Holstein",54.25656158546229,9.98529603183275
743,Schinkel bei Gettorf,54.3558284603593,9.95605202615266
744,Schmalstede,54.195792940004104,10.0272274776751
745,"Schönbek, Holstein",54.1618393217758,9.9789081528242
746,"Schönhorst, Holstein",54.2254656743553,10.104107634668999
747,Schülldorf,54.300466632786296,9.7291785985232
748,Schülp bei Nortorf,54.163807805587,9.88635853076533
749,Schülp bei Rendsburg,54.259575428126496,9.62945722187118
750,Schwedeneck,54.459428242654496,10.046345239877802
751,Seefeld bei Hanerau-Hademarschen,54.101682385978606,9.49296550750734
752,"Sehestedt, Eider",54.366780000000006,9.81944
753,Sören,54.2019262471777,9.99519452596251
754,Sophienhamm,54.276286549168994,9.46341574335638
755,Stafstedt bei Rendsburg,54.170530511948606,9.661927993848789
756,Steenfeld,54.1426838675212,9.379862788319599
757,"Strande, Holstein",54.4408932151081,10.1709284842015
758,Tackesdorf,54.16457839498221,9.471356290578859
759,Tappendorf,54.1046109023127,9.691057677820222
760,Techelsdorf,54.2143098691,10.0469396785
761,Thaden,54.103564090113295,9.42251460552217
762,"Thumby, Schwansen",54.585826501599996,9.910039621589998
763,Timmaspe,54.140793854176394,9.891024858312619
764,Todenbüttel,54.1295141652807,9.55810862357904
765,Tüttendorf,54.3922268498189,9.99286400377759
766,Waabs,54.5357955911,9.98806374073
767,Wapelfeld,54.0847725482883,9.608448322370538
768,Warder bei Neumünster,54.21272,9.88471
769,Wasbek,54.07225,9.89598
770,Wattenbek,54.1633304156415,10.0542400046642
771,Westensee,54.277962850213896,9.899830123782221
772,Westerrönfeld,54.280545285986996,9.643244446759981
773,Windeby,54.462724215,9.81717886329
774,Winnemark,54.61787016101089,9.92786236362456
775,Schleswig-Flensburg,54.631097014925366,9.555970074626863
776,Alt Bennebek,54.37778,9.43111
777,Arnis,54.630359999999996,9.93159
778,Bergenhusen,54.3753533896918,9.31911625111643
779,"Böel, Angeln",54.6485531792,9.72130524969
780,Böklund,54.607252671111205,9.58450581132602
781,Börm bei Schleswig,54.39901999999999,9.38119
782,Bollingstedt,54.59279,9.410812
783,Boren,54.61354,9.81795
784,Borgwedel,54.49995,9.66568
785,Brebel,54.6395977582,9.74003243303
786,Brodersby bei Schleswig,54.537769999999995,9.706439999999999
787,Busdorf bei Schleswig,54.49299,9.55207
788,Dannewerk,54.4864355056769,9.50951325892635
789,Dörpstedt bei Schleswig,54.43387,9.3626
790,Dollrottfeld,54.64266,9.80914
791,Ekenis,54.62712,9.852360000000001
792,Ellingstedt,54.477710085632204,9.4096391946001
793,Erfde,54.308983,9.317646
794,Fahrdorf,54.503539,9.601545
795,Geltorf,54.462867376187106,9.611111983649211
796,Goltoft,54.5456905535509,9.72218836745833
797,Grödersby,54.6375739902,9.91713004112
798,Groß Rheide,54.4426174338499,9.43331572412677
799,Havetoft,54.6500210379881,9.51074712233555
800,Havetoftloit,54.662250953699996,9.56053900575
801,Hollingstedt bei Schleswig,54.45704,9.33549
802,Hüsby,54.50075,9.48829
803,Idstedt,54.5821904924005,9.51176698505115
804,Jagel bei Schleswig,54.457122905526894,9.53752356766887
805,Jübek,54.5565,9.39044
806,"Kappeln, Schlei",54.6590711176,9.931329655639999
807,Kiesby,54.6208391303,9.81813031292
808,Klappholz,54.621154687235205,9.53958082198333
809,Klein Bennebek,54.402069999999995,9.45647
810,Klein Rheide,54.450583876518294,9.476606577627141
811,Kropp bei Schleswig,54.41115371921679,9.51308327912517
812,Loit,54.6113867309,9.69996023035
813,Lottorf,54.451204532693396,9.569154188029241
814,Lürschau,54.54125,9.49623
815,Meggerdorf,54.34921538105829,9.398355410938901
816,Mohrkirch,54.675534304368604,9.714544668786
817,Neuberend,54.55602,9.52417
818,Norderbrarup,54.656180000000006,9.768469999999999
819,Norderstapel,54.3598054275344,9.24487203503195
820,Nottfeld,54.613295460799996,9.76207153797
821,Oersberg,54.6746,9.8422
822,Rabenkirchen-Faulück,54.64931800000001,9.842478999999999
823,Rüde bei Satrup,54.823755168199995,9.57608716488
824,Rügge,54.691160184405405,9.763193905345869
825,Satrup,54.6922598987,9.60367093837
826,Saustrup,54.674369999999996,9.76949
827,Schaalby,54.549580000000006,9.63958
828,Scheggerott,54.66571999999999,9.82115
829,Schleswig,54.518080000000005,9.57038
830,Schnarup-Thumby,54.6469102479615,9.64482739822876
831,Schuby bei Schleswig,54.51814,9.47986
832,Selk,54.4724945137066,9.56663425265975
833,Silberstedt,54.5180797040668,9.37611654544417
834,Steinfeld bei Schleswig,54.6004655471,9.74733608818
835,Stolk,54.59843340705171,9.54194250702094
836,Struxdorf,54.629887086489106,9.64269303040516
837,Süderbrarup,54.6361,9.781460000000001
838,Süderfahrenstedt,54.5852020944476,9.58766813575458
839,Süderstapel,54.3498172502046,9.21741090858523
840,Taarstedt,54.5688113360287,9.690030022474279
841,Tetenhusen,54.351936141073,9.50052182375617
842,Tielen bei Erfde,54.2858197465059,9.33203511083666
843,Tolk,54.57764309174971,9.639203476476789
844,Treia bei Schleswig,54.5174141334779,9.322491811161669
845,Uelsby,54.631220758771896,9.59642492489826
846,Ulsnis,54.5730281235394,9.74562819203948
847,Wagersrott,54.66365,9.79519
848,Wohlde bei Schleswig,54.4078686537129,9.29848939323965
849,Twedt bei Schleswig,54.597305015399996,9.676496265880001
850,Nübel bei Schleswig,54.5636361570043,9.583857460828769
851,Tastrup bei Flensburg,54.76509371149999,9.4772163039
852,Ahneby,54.7078454381146,9.728527024380641
853,Ausacker,54.7392898633,9.57490558779
854,Böxlund,54.8369409422,9.17925482393
855,Dollerup,54.782070073599996,9.67668386102
856,Eggebek,54.620206671838204,9.37919788062574
857,Esgrus,54.723920490959905,9.77956476806827
858,"Gelting, Angeln",54.7462661395,9.89700274467
859,Glücksburg (Ostsee),54.834154633012,9.54751448929308
860,Großenwiehe,54.70321,9.24757999999997
861,Großsolt,54.6998863153,9.51765785968
862,Grundhof bei Flensburg,54.7732944236,9.65308802128
863,Handewitt,54.7634057335,9.324908955449999
864,Harrislee,54.800799,9.386275999999999
865,"Hasselberg, Ostsee",54.714225087399996,9.977914261810001
866,Hörup,54.741222317100004,9.1034363389
867,Holt bei Medelby,54.8105287733,9.14853011966
868,Hürup,54.7472356221,9.52964599287
869,Husby bei Flensburg,54.7653488281,9.57612426877
870,Janneby,54.625564883450394,9.30044353008272
871,Jardelund,54.8250264622,9.201098734139999
872,Jerrishoe,54.6572493142976,9.37190319596957
873,Jörl,54.6125690969401,9.27395629882049
874,Kronsgaard,54.732243159,9.962888526910001
875,Langballig,54.797014257600004,9.63691100533
876,Langstedt,54.616769999999995,9.385769999999999
877,Maasbüll bei Flensburg,54.7755911221,9.52410550714
878,Maasholm,54.6831927657,9.9929346323
879,Medelby,54.8134036887,9.17374020219
880,Meyn,54.7576904174,9.2187015891
881,Munkbrarup,54.8026425337,9.5637234584
882,"Nieby bei Gelting, Angeln",54.7716976266,9.93403868675
883,Niesgrau,54.7427048442,9.81124715805
884,Nordhackstedt,54.73335360674889,9.16705851597769
885,Oeversee,54.7048841523,9.435781539039999
886,Osterby bei Medelby,54.797417487,9.21028440595
887,"Pommerby bei Gelting, Angeln",54.7565938359,9.93708567619
888,Quern,54.7502224464,9.71675695777
889,Rabel,54.690257774799996,9.95020704269
890,"Rabenholz bei Gelting, Angeln",54.722097515600005,9.90210832953
891,Ringsberg,54.8067167835,9.59834413528
892,Schafflund,54.759230784135106,9.18345473762185
893,Sieverstedt,54.6440025419994,9.478627669382211
894,Sörup,54.71718943638639,9.6696169972343
895,Sollerup,54.569340000000004,9.320960000000001
896,Stangheck,54.7103832676,9.8608908236
897,Steinberg bei Flensburg,54.764128132299994,9.804091024389999
898,Steinbergkirche,54.7544705921,9.760456848139999
899,Sterup,54.727785273973396,9.73927785797112
900,Stoltebüll,54.702684401999996,9.87843783498
901,Süderhackstedt,54.59245234176289,9.28966666757297
902,Tarp,54.6644626885676,9.40599474310111
903,Wallsbüll bei Flensburg,54.777277315,9.23481093645
904,Wanderup,54.688010253164606,9.335581439304471
905,Wees,54.807239,9.522599000000001
906,Weesby,54.8303564724,9.153277146810002
907,Westerholz bei Langballig,54.8163807567,9.67204051018
908,Lindewitt,54.700350149399995,9.20937286615
909,Jarplund-Weding,54.7433859239,9.385031581469999
910,Sankelmark,54.7169084165,9.425106347160002
911,Freienwill bei Flensburg,54.7283936204,9.49240620291
912,Segeberg,53.92322872340426,10.161231170212766
913,Alveslohe,53.78799,9.91512
914,Armstedt,53.9711897939432,9.84708625133515
915,Bad Bramstedt,53.9208930540248,9.88168272431375
916,Bad Segeberg,53.938233,10.305231
917,"Bahrenhof, Holstein",53.8697843894955,10.3640316613769
918,Bark bei Bad Segeberg,53.91056999999999,10.18447
919,Bebensee,53.87491,10.29856
920,Bimöhlen,53.93581,9.955110000000001
921,Blunk,54.010709999999996,10.31228
922,Boostedt,54.0144,10.01972
923,Bornhöved,54.069394048891,10.2264063869238
924,Borstel bei Neumünster,53.9673377741042,9.79974190946103
925,Bühnsdorf,53.88782,10.37289
926,Daldorf,54.016909999999996,10.2488
927,"Damsdorf, Kreis Segeberg",54.06488267093,10.3173398818254
928,Dreggers,53.88508,10.34552
929,"Ellerau, Holstein",53.75121,9.9205
930,Fahrenkrug,53.94491,10.252130000000001
931,Föhrden-Barl,53.9286219026486,9.78696587737084
932,Fredesdorf,53.87509,10.20358
933,Fuhlendorf bei Wiemersdorf,53.9436569547884,9.886770874815001
934,Geschendorf,53.92216,10.4402
935,Glasau,54.05007954805039,10.516554468231302
936,Gönnebek,54.04926,10.17811
937,Großenaspe,53.973627694479596,9.968763245696241
938,Groß Kummerfeld,54.051809999999996,10.07338
939,"Groß Niendorf, Holstein",53.84545,10.24446
940,Groß Rönnau,53.97226,10.311960000000001
941,Hagen bei Bad Bramstedt,53.946519821756105,9.826584116177571
942,Hardebek,53.9884126357662,9.869342551188481
943,Hartenholm,53.90016,10.05905
944,Hasenkrug bei Brokstedt,53.985068469366105,9.849742979364411
945,Hasenmoor,53.89977,9.97926
946,"Heidmoor, Holstein",53.866690000000006,9.81725
947,"Heidmühlen, Holstein",53.9552,10.07751
948,Henstedt-Ulzburg,53.790319999999994,9.9803
949,Hitzhusen,53.9231928262565,9.85223542209149
950,Högersdorf,53.920680000000004,10.2818600000001
951,Hüttblek,53.841969999999996,10.07338
952,Itzstedt,53.807336,10.157515
953,"Kaltenkirchen, Holstein",53.83914,9.960239999999999
954,Kattendorf,53.842119999999994,10.02379
955,Kayhude,53.75761,10.13273
956,"Kisdorf, Holstein",53.80993,10.008410000000001
957,Klein Gladebrügge,53.91466,10.31771
958,Klein Rönnau,53.96213,10.32085
959,Krems II,53.98661,10.35549
960,Kükels,53.89611,10.23812
961,Latendorf,53.99568000000001,10.06245
962,"Leezen, Holstein",53.86889,10.25097
963,Lentföhrden,53.8730756931822,9.885652189974518
964,Mönkloh,53.8893855875667,9.78687602336885
965,Mözen,53.91121,10.26254
966,Nahe,53.791180000000004,10.13748
967,Negernbötel,53.98209,10.24939
968,Nehms,54.0249764893556,10.3580859895229
969,Neuengörs,53.90101,10.38417
970,Neversdorf,53.86453,10.28347
971,Norderstedt,53.673590000000004,9.9857
972,Nützen,53.86537,9.91884
973,"Oering, Holstein",53.82428,10.15135
974,Oersdorf bei Neumünster,53.84016999999999,9.99358
975,Pronstorf,53.9573,10.46835
976,Rickling,54.00911,10.16284
977,"Rohlstorf, Holstein",53.96856999999999,10.40755
978,Schackendorf bei Bad Segeberg,53.95759,10.27068
979,Schieren bei Bad Segeberg,53.943830000000005,10.39153
980,Schmalensee,54.0806894205797,10.270383215379699
981,Schmalfeld,53.877109999999995,9.98354
982,Schwissel,53.895680000000006,10.29341
983,Seedorf bei Bad Segeberg,54.049826232241,10.4105681989908
984,"Seth, Holstein",53.84604,10.17496
985,Sievershütten,53.84112,10.10627
986,Stipsdorf,53.941790000000005,10.333919999999999
987,Stocksee,54.088094463081596,10.341717234683
988,Strukdorf,53.91966,10.48819
989,Struvenhütten,53.86413,10.05925
990,Stuvenborn,53.851780000000005,10.12561
991,Sülfeld,53.80106,10.22878
992,Tarbek,54.05628000000001,10.26568
993,Tensfeld,54.0412210764855,10.3180888886929
994,Todesfelde,53.8951907819038,10.176937630300198
995,Trappenkamp,54.040859999999995,10.21509
996,Travenhorst,54.01923000000001,10.45496
997,Traventhal,53.89801,10.32043
998,Wahlstedt,53.952909999999996,10.21456
999,Wakendorf I,53.864340000000006,10.35603
1000,Wakendorf bei Henstedt-Ulzburg,53.785219999999995,10.0842299999999
1001,Weddelbrook,53.9032835947486,9.8273995077181
1002,Weede,53.922019999999996,10.37373
1003,Wensin,53.98113000000001,10.40748
1004,Westerrade,53.934419999999996,10.45598
1005,Wiemersdorf,53.957776789538,9.904593483166712
1006,Winsen bei Neumünster,53.830090000000006,10.01116
1007,"Wittenborn, Kreis Segeberg",53.9264,10.22408
1008,Steinburg,53.94093421052632,9.515789561403507
1009,Aasbüttel,54.066624,9.440368
1010,Aebtissinwisch,53.970946999999995,9.289992999999999
1011,Agethorst,54.019467000000006,9.435937
1012,Altenmoor,53.7590104019671,9.566185646760001
1013,Auufer,53.923232999999996,9.681892
1014,Bahrenfleth,53.871441000000004,9.439896000000001
1015,Beidenfleth,53.878354,9.414377
1016,Bekdorf bei Wilster,53.93769,9.423966
1017,Bekmünde,53.925025,9.446256
1018,Besdorf,54.050731000000006,9.360748
1019,Blomesche Wildnis,53.805657999999994,9.450797999999999
1020,Bokelrehm,54.038089,9.386109
1021,Bokhorst bei Schenefeld,54.058934482042616,9.395102262496946
1022,Borsfleth,53.826715,9.430798
1023,Breitenberg bei Itzehoe,53.924369999999996,9.637965
1024,Breitenburg,53.905752,9.568923
1025,"Brokdorf, Holstein",53.861885,9.328287
1026,Brokstedt,53.991684,9.817088
1027,"Büttel, Westholstein",53.900228000000006,9.226957
1028,"Christinenthal, Holstein",54.0499593741924,9.532244752600679
1029,Dägeling,53.87840500000001,9.531152
1030,Dammfleth,53.908773,9.371519000000001
1031,Drage bei Hohenaspe,54.003443000000004,9.519824
1032,Ecklak,53.953656,9.262411
1033,Elskop,53.808781999999994,9.477172
1034,Engelbrechtsche Wildnis,53.784638,9.462173
1035,Fitzbek,54.002623,9.769674
1036,Glückstadt,53.788403,9.423933
1037,Grevenkop,53.84210699999999,9.529661
1038,Gribbohm,54.028687,9.347382000000001
1039,Hadenfeld,54.033804,9.456263
1040,Heiligenstedten,53.932759999999995,9.47465
1041,Heiligenstedtenerkamp,53.899874,9.468966
1042,Hennstedt bei Itzehoe,54.0289746398718,9.71813771183969
1043,"Herzhorn, Holstein",53.790672,9.489478
1044,Hingstheide,53.907737,9.753026
1045,Hodorf,53.901429,9.429038
1046,Hohenaspe,53.989066,9.52774
1047,Hohenfelde bei Elmshorn,53.84390500000001,9.621519000000001
1048,Hohenlockstedt,53.968265,9.618966
1049,Holstenniendorf,54.04246,9.347339
1050,Horst (Holstein),53.811088,9.618279
1051,Huje,53.977224,9.434510000000001
1052,Itzehoe,53.926752,9.5127
1053,Kaaks,53.990075,9.469738000000001
1054,Kaisborstel,54.013794,9.481067999999999
1055,Kellinghusen,53.951976,9.719642
1056,Kiebitzreihe,53.78266,9.617282000000001
1057,Kleve bei Itzehoe,53.962648,9.408947999999999
1058,Kollmoor bei Itzehoe,53.921262,9.600322
1059,Krempdorf,53.82777900000001,9.466175999999999
1060,"Krempe, Holstein",53.836656000000005,9.489853
1061,Kremperheide,53.88244,9.478867
1062,Krempermoor,53.875926,9.481055
1063,Kronsmoor bei Westermoor,53.9082,9.600128999999999
1064,Krummendiek,53.946616000000006,9.416584
1065,Kudensee,53.93006,9.21226
1066,Lägerdorf,53.886917000000004,9.572172
1067,Landrecht,53.926017,9.398406
1068,Landscheide bei Sankt Margarethen,53.92069300000001,9.252508
1069,"Lockstedt, Holstein",54.004666,9.686634
1070,Lohbarbek,53.945788,9.63598
1071,Looft,54.028517,9.523064
1072,Mehlbek,54.004616000000006,9.434583
1073,Moordiek bei Westermoor,53.91548,9.655944
1074,Moordorf bei Westermoor,53.902269,9.617602
1075,Moorhusen bei Wilster,53.960338,9.387064
1076,Mühlenbarbek,53.957753000000004,9.667185
1077,Münsterdorf,53.901789,9.541524
1078,"Neuenbrook, Holstein",53.85964499999999,9.53322
1079,Neuendorf bei Elmshorn,53.73766,9.562851
1080,Nienbüttel bei Wacken,54.030570999999995,9.415286
1081,Nortorf bei Wilster,53.926588,9.290363000000001
1082,"Nutteln, Holstein",53.989481999999995,9.386505999999999
1083,Oelixdorf,53.927577,9.558216
1084,Oeschebüttel,53.990365000000004,9.72182
1085,Oldenborstel,54.061952000000005,9.5127
1086,"Oldendorf, Holstein",53.95340899999999,9.458583
1087,Ottenbüttel,53.973661,9.506748
1088,"Peissen, Holstein",54.024541000000006,9.60868
1089,Pöschendorf,54.038927,9.490787
1090,Poyenberg,54.041491,9.690783999999999
1091,Puls,54.082796372880104,9.518704290941251
1092,Quarnstedt bei Wrist,53.953826,9.784869
1093,Rade bei Fitzbek,54.00029,9.741717
1094,"Reher, Holstein",54.067166,9.573072999999999
1095,Rethwisch bei Lägerdorf,53.866471999999995,9.591652999999999
1096,"Rosdorf, Holstein",53.978038,9.724715
1097,Sankt Margarethen,53.892185999999995,9.253991000000001
1098,Sarlhusen,54.024289,9.792192
1099,"Schenefeld, Mittelholstein",54.046473,9.481399
1100,Schlotfeld,53.957395999999996,9.582708
1101,Siezbüttel,54.052721,9.447425
1102,Silzen,54.028459999999995,9.635177
1103,Sommerland,53.805873999999996,9.534915
1104,Stördorf,53.910943,9.422129
1105,Störkathen,53.980346999999995,9.756469000000001
1106,Süderau,53.817454000000005,9.514632
1107,"Vaale, Holstein",53.998903000000006,9.375863
1108,Vaalermoor,53.978051,9.331485
1109,Wacken,54.023306000000005,9.377494
1110,Warringholz,54.079889,9.464331
1111,"Westermoor, Holstein",53.914577,9.629191
1112,Wewelsfleth,53.844682999999996,9.400815
1113,Wiedenborstel,54.043417000000005,9.763558999999999
1114,Willenscharen,54.009917,9.808926
1115,Wilster,53.922247999999996,9.374704
1116,Winseldorf,53.94426,9.606297999999999
1117,Wittenbergen bei Kellinghusen,53.933831000000005,9.682313
1118,Wrist,53.933565,9.755877
1119,Wulfsmoor,53.911999,9.723974
1120,Kollmar,53.73155241808898,9.466180801391602
1121,Neuendorf-Sachsenbande,53.961505,9.326956
1122,Neuendorf bei Wilster,53.961505,9.326956
1123,Sachsenbande bei Wilster,53.959756999999996,9.350719
1124,Stormarn,53.72151272727273,10.358614545454545
1125,Ahrensburg,53.67579,10.23845
1126,"Badendorf, Holstein",53.866640000000004,10.57859
1127,Bad Oldesloe,53.80803,10.37341
1128,Bargfeld-Stegen,53.76493000000001,10.181980000000001
1129,Bargteheide,53.7335,10.26927
1130,"Barnitz, Trave",53.805640000000004,10.499939999999999
1131,Barsbüttel,53.568419999999996,10.16282
1132,Braak bei Hamburg,53.608495999999995,10.246749000000001
1133,Delingsdorf,53.70839,10.25177
1134,"Elmenhorst, Kreis Stormarn",53.7652,10.2635
1135,"Glinde, Kreis Stormarn",53.54073100000001,10.211394
1136,"Grabau, Kreis Stormarn",53.80434,10.27367
1137,Grande,53.58243,10.3871799999999
1138,"Grönwohld, Kreis Stormarn",53.641909999999996,10.408733
1139,"Großensee, Kreis Stormarn",53.614090000000004,10.34093
1140,Großhansdorf,53.66805,10.28535
1141,"Hamberge, Holstein",53.83821,10.57752
1142,Hamfelde in Holstein (Kreis Stormarn),53.60363,10.45336
1143,Hammoor bei Ahrensburg,53.71357,10.3196399999999
1144,Heidekamp,53.8542,10.500960000000001
1145,Heilshoop,53.88636999999999,10.5303
1146,"Hohenfelde, Kreis Stormarn",53.63055,10.47338
1147,Hoisdorf,53.65303,10.32755
1148,Jersbek,53.74119,10.2218
1149,Klein Wesenberg,53.810880000000004,10.54527
1150,Köthel (Stormarn),53.61075,10.51186
1151,Lütjensee,53.650659999999995,10.36402
1152,Meddewade,53.8096,10.43967
1153,Mönkhagen,53.89951,10.55805
1154,Neritz bei Bad Oldesloe,53.78573000000001,10.2846999999999
1155,Nienwohld,53.78638,10.1932
1156,Oststeinbek,53.54221,10.16569
1157,"Pölitz, Kreis Stormarn",53.773680000000006,10.38221
1158,"Rausdorf, Kreis Stormarn",53.58935,10.32912
1159,"Rehhorst, Holstein",53.87566999999999,10.47022
1160,Reinbek,53.51071999999999,10.24831
1161,Reinfeld (Holstein),53.824940000000005,10.49315
1162,"Rethwisch, Kreis Stormarn",53.78185,10.44231
1163,Rümpel,53.78294,10.35188
1164,"Siek, Kreis Stormarn",53.635059999999996,10.297360000000001
1165,"Stapelfeld, Bezirk Hamburg",53.60558,10.21993
1166,"Tangstedt, Kreis Stormarn",53.731880000000004,10.08447
1167,"Todendorf, Kreis Stormarn",53.69398,10.3446
1168,Tremsbüttel,53.742619999999995,10.310889999999999
1169,Trittau,53.61096,10.40473
1170,"Westerau, Holstein",53.77868,10.49193
1171,Witzhave,53.56718000000001,10.334480000000001
1172,Zarpen,53.870509999999996,10.51826
1173,Brunsbek,53.59509,10.26694
1174,"Lasbek, Kreis Stormarn",53.733909999999995,10.36571
1175,Ammersbek,53.69804,10.183710000000001
1176,"Steinburg, Kreis Stormarn",53.69177,10.39204
1177,Travenbrück,53.832280000000004,10.30751
1178,Feldhorst,53.85141643191611,10.419136072749302
1179,"Wesenberg, Holstein",53.8334997564433,10.5332127445221
1181,Freie und Hansestadt Hamburg,53.554423,9.994583
1182,Hamburg,53.554423,9.994583
1183,Hamburg-Insel Neuwerk,53.92024619747729,8.5002545095253
1184,Allermöhe,53.48774,10.11708
1185,Alsterdorf,53.6108,10.0131
1186,Altengamme,53.4306,10.2678
1187,Altenwerder,53.5047,9.92056
1188,Altona-Altstadt,53.5503,9.93528
1189,Altona-Nord,53.5614,9.94472
1190,Bahrenfeld,53.5697,9.90917
1191,Barmbek-Nord,53.5961,10.0511
1192,Barmbek-Süd,53.5796,10.03838
1193,Bergedorf,53.4829909938915,10.2175161163329
1194,Bergstedt,53.6672,10.1306
1195,Billbrook,53.52336,10.0862999999999
1196,Billstedt,53.5411,10.1242
1197,Billwerder,53.5069,10.1256
1198,Blankenese,53.5575,9.80306
1199,Borgfelde,53.55406,10.033380000000001
1200,Bramfeld,53.6122,10.0886
1201,Cranz,53.5364,9.77972
1202,Curslack,53.45296,10.23222
1203,Dulsberg,53.5825,10.0625
1204,Duvenstedt,53.71071,10.10577
1205,Eidelstedt,53.60702,9.906310000000001
1206,Eilbek,53.5661,10.0475
1207,Eimsbüttel,53.5725,9.94972
1208,Eißendorf,53.456269999999996,9.95478
1209,Eppendorf,53.5892,9.98139
1210,Farmsen-Berne,53.6081,10.1272
1211,Finkenwerder,53.5303,9.868889999999999
1212,Francop,53.5075,9.854439999999999
1213,Fuhlsbüttel,53.6289,10.0161
1214,Groß Borstel,53.6086,9.986939999999999
1215,Groß Flottbek,53.5658,9.879439999999999
1216,Hamburg-Altstadt,53.5453,9.995280000000001
1217,Hamm-Mitte,53.5531,10.0511
1218,Hamm-Nord,53.5603,10.0511
1219,Hamm-Süd,53.5486,10.0511
1220,Hammerbrook,53.54464,10.0280700000001
1221,Harburg,53.4592,9.98056
1222,Harvestehude,53.57765,9.988010000000001
1223,Hausbruch,53.47085,9.88847
1224,Heimfeld,53.463919999999995,9.956339999999999
1225,Hoheluft-Ost,53.5828,9.980830000000001
1226,Hoheluft-West,53.5808,9.96833
1227,Hohenfelde,53.5628,10.0264
1228,Horn,53.55421,10.08957
1229,Hummelsbüttel,53.6539,10.0486
1230,Iserbrook,53.5781,9.82806
1231,Jenfeld,53.5772,10.1281
1232,Kirchwerder,53.4397,10.1719
1233,Kleiner Grasbrook,53.5297,9.98833
1234,Klostertor,53.54656,10.0141
1235,Langenbek,53.4328,9.99083
1236,Langenhorn,53.66565,10.00129
1237,Lemsahl-Mellingstedt,53.67351,10.09503
1238,Lohbrügge,53.5089,10.1983
1239,Lokstedt,53.6031,9.956389999999999
1240,Lurup,53.5939,9.87417
1241,Marienthal,53.5594,10.0858
1242,Marmstorf,53.4339,9.95889
1243,Gut Moor,53.4508,10.0186
1244,Moorburg,53.4883,9.93028
1245,Moorfleet,53.5092,10.0828
1246,Neuenfelde,53.5217,9.80028
1247,Neuengamme,53.4456,10.2211
1248,Neugraben-Fischbek,53.4772,9.84583
1249,Neuland,53.4672,10.0297
1250,Neustadt,53.5497,9.979439999999999
1251,Niendorf,53.6186,9.961110000000001
1252,Nienstedten,53.55471,9.8446
1253,Ochsenwerder,53.4719,10.0942
1254,Ohlsdorf,53.6219,10.0411
1255,Osdorf,53.5736,9.852219999999999
1256,Othmarschen,53.552659999999996,9.893930000000001
1257,Ottensen,53.55356,9.918289999999999
1258,Poppenbüttel,53.6564,10.0742
1259,Rahlstedt,53.6072,10.1606
1260,Reitbrook,53.4683,10.1444
1261,Rissen,53.5847,9.75639
1262,Rönneburg,53.4319,10.0094
1263,Rothenburgsort,53.5356,10.0369
1264,Rotherbaum,53.5694,9.98528
1265,Sasel,53.6522,10.1169
1266,Schnelsen,53.6364,9.93056
1267,Sinstorf,53.4208,9.9875
1268,Spadenland,53.4814,10.0664
1269,Sankt Georg,53.5564,10.0144
1270,Sankt Pauli,53.55648000000001,9.9644
1271,Steilshoop,53.6158,10.0572
1272,Steinwerder,53.5392,9.96139
1273,Stellingen,53.59216,9.92877
1274,Sülldorf,53.5856,9.79889
1275,Tatenberg,53.4936,10.0797
1276,Tonndorf,53.5869,10.1175
1277,Uhlenhorst,53.5714,10.0189
1278,Veddel,53.5281,10.0217
1279,Volksdorf,53.6497,10.1842
1280,Waltershof,53.5292,9.921389999999999
1281,Wandsbek,53.5794,10.0864
1282,Wellingsbüttel,53.6431,10.0897
1283,Wilhelmsburg,53.4978,10.0189
1284,Wilstorf,53.4436,9.984169999999999
1285,Winterhude,53.5953,10.0122
1286,Wohldorf-Ohlstedt,53.7019,10.1306
1289,Braunschweig,52.269009999999994,10.52597
1290,Braunschweig,52.269020000000005,10.5259599999999
1291,Salzgitter,52.14965,10.33671
1292,Salzgitter,52.14978,10.336730000000001
1293,Bad,52.0492,10.3719
1294,Barum,52.1211,10.4222
1295,Beddingen,52.1825,10.4236
1296,Beinum,52.07501318851521,10.411964373016401
1297,Bleckenstedt,52.177806579062995,10.4066785423279
1298,Bruchmachtersen,52.14139,10.31332
1299,Calbecht,52.09132,10.38125
1300,Drütte,52.1531,10.4439
1301,Engelnstedt,52.1692,10.3539
1302,Engerode,52.08903,10.372689999999999
1303,Flachstöckheim,52.0856,10.4392
1304,Gebhardshagen,52.10569,10.35947
1305,Gitter,52.0358,10.3531
1306,Groß Mahner,52.0514,10.4094
1307,Hallendorf,52.1542,10.3792
1308,Heerte,52.12482,10.388860000000001
1309,Hohenrode,52.0244,10.3486
1310,Immendorf,52.1461,10.4428
1311,Lebenstedt,52.15665,10.3232399999999
1312,Lesse,52.1606,10.2569
1313,Lichtenberg,52.12692461474651,10.290407867736802
1314,Lobmachtersen,52.10157,10.424710000000001
1315,Ohlendorf,52.0619,10.4464
1316,Osterlinde,52.1286,10.2492
1317,Reppner,52.173359999999995,10.30831
1318,Ringelheim,52.0369111967591,10.309270846557599
1319,Salder,52.1356,10.3356
1320,Sauingen,52.1892,10.4122
1321,Thiede,52.1881,10.4786
1322,Üfingen,52.2006,10.4111
1323,Watenstedt,52.1461,10.4072
1324,Wolfsburg,52.43788000000001,10.7663700000001
1326,Gifhorn,52.52641951219512,10.608129268292684
1327,Adenbüttel,52.38193892728311,10.452558746032802
1328,Barwedel,52.52131,10.775260000000001
1329,"Bergfeld, Niedersachsen",52.54486,10.8495399999999
1330,Bokensdorf,52.4979,10.72855
1331,"Brome, Niedersachsen",52.6005,10.93559
1332,Calberlah,52.4240572373818,10.621574169311499
1333,Dedelstorf,52.715319807089,10.5128592486573
1334,Ehra-Lessien,52.583600181339904,10.7830913543701
1335,Gifhorn,52.478269999999995,10.54901
1336,Groß Oesingen,52.64779,10.4635
1337,Hankensbüttel,52.72849,10.60392
1338,"Hillerse, Kreis Gifhorn",52.41301,10.4039
1339,Isenbüttel,52.436769999999996,10.57677
1340,Jembke,52.5002090011535,10.763653010559
1341,"Leiferde, Kreis Gifhorn",52.44024,10.432939999999999
1342,Meine,52.384890000000006,10.5385
1343,Meinersen,52.472409999999996,10.36015
1344,Müden (Aller),52.52591999999999,10.3634099999999
1345,Obernholz,52.75031,10.62037
1346,Osloß,52.4711,10.68229
1347,Parsau,52.53595,10.8879400000001
1348,Ribbesbüttel,52.4336139767684,10.509490222167999
1349,Rötgesbüttel,52.41594,10.53048
1350,Rühen,52.488009999999996,10.8873100000001
1351,Sassenburg,52.51546,10.63084
1352,Schönewörde,52.6316330290829,10.6267768676757
1353,Schwülper,52.3562647621326,10.4319696243288
1354,Sprakensehl,52.76601259917499,10.4893262698364
1355,"Steinhorst, Niedersachsen",52.68916,10.4035699999999
1356,Tappenbeck,52.472069999999995,10.7393999999999
1357,Tiddische,52.51781,10.806610000000001
1358,Tülau,52.57716,10.87727
1359,Ummern,52.58854,10.4414899999999
1360,"Vordorf, Kreis Gifhorn",52.365384462643995,10.5203749841309
1361,Wagenhoff,52.5523301,10.523750000000101
1362,Wahrenholz,52.61589,10.59843
1363,Wasbüttel,52.41263,10.59272
1364,"Wesendorf, Niedersachsen",52.592883474115,10.5346303756714
1365,"Weyhausen, Kreis Gifhorn",52.462030000000006,10.71976
1366,"Wittingen, Niedersachsen",52.728880000000004,10.7352100000001
1367,Didderse,52.38089,10.40254
1368,Göttingen,51.53161034482759,10.014374137931034
1369,Adelebsen,51.5806701,9.753979999999961
1370,Bilshausen,51.630021527819395,10.158116931152302
1371,Bodensee,51.605909999999994,10.13096
1372,Bovenden,51.59004,9.932779999999982
1373,Bühren bei Göttingen,51.4849569334176,9.68118423278815
1374,Dransfeld,51.500479999999996,9.76157000000001
1375,"Duderstadt, Niedersachsen",51.51214,10.251619999999999
1376,Ebergötzen,51.57118139976421,10.1073444549561
1377,"Friedland, Kreis Göttingen",51.42027,9.913040000000018
1378,Gieboldehausen,51.60706,10.21925
1379,"Gleichen, Kreis Göttingen",51.4617527165295,10.0388988885497
1380,Göttingen,51.53738,9.92923999999994
1381,Jühnde,51.46301,9.79786999999999
1382,Krebeck,51.588359999999994,10.12105
1383,Landolfshausen,51.53966,10.1034099999999
1384,Hann. Münden,51.4201,9.65547000000004
1385,Niemetal,51.501240288499204,9.715489121703971
1386,Obernfeld,51.555479999999996,10.23285
1387,Rhumspringe,51.582240000000006,10.30022
1388,"Rollshausen, Eichsfeld",51.57172,10.2149400000001
1389,Rosdorf,51.50584,9.90407000000005
1390,"Rüdershausen, Eichsfeld",51.580220000000004,10.26805
1391,Scheden,51.458659999999995,9.727020000000039
1392,"Seeburg, Niedersachsen",51.56507,10.14737
1393,Seulingen,51.5412407444944,10.1631128836059
1394,"Staufenberg, Niedersachsen",51.34984,9.597989999999982
1395,"Waake, Kreis Göttingen",51.556509999999996,10.05583
1396,Wollbrandshausen,51.5870598311647,10.1609064285278
1397,Wollershausen,51.59715,10.25323
1398,Goslar,51.908390000000004,10.44638
1399,"Altenau, Harz",51.8026007674846,10.446395111084
1400,Bad Harzburg,51.8998,10.5622
1401,Bad Harzburg,51.8831,10.5644
1402,Bettingerode,51.9029,10.5655
1403,Bündheim,51.89801,10.5473500000001
1404,Göttingerode,51.8991,10.5182
1405,Harlingerode,51.90835,10.52208
1406,Schlewecke bei Bad Harzburg,51.8995,10.5378
1407,"Westerode, Nordharz",51.9027,10.56215
1408,Eckertal,51.9002,10.6518
1409,Bündheim / Schlewecke,51.89887,10.54315
1410,Braunlage,51.72513,10.61041
1411,Clausthal-Zellerfeld,51.8093939012619,10.339908963012698
1412,Goslar,51.908390000000004,10.4468091534424
1413,Altstadt,51.91773,10.42704
1414,Hahndorf,51.9547,10.4353
1415,Hahnenklee-Bockswiese,51.8579,10.3399
1416,Jerstedt,51.9585,10.3895
1417,Oker,51.9066,10.4846
1418,Hahausen,51.94775,10.21849
1419,Langelsheim,51.93581,10.3324700000001
1420,Liebenburg,52.023249564120206,10.4302589416504
1421,Lutter am Barenberge,51.98964303398851,10.2677299682618
1422,Sankt Andreasberg,51.713229999999996,10.5168
1423,Schulenberg im Oberharz,51.8356867010853,10.433471661377
1424,"Seesen, Harz",51.8894,10.17725
1425,Vienenburg,51.95167,10.55764
1426,Wallmoden,52.01215699717339,10.2620651428223
1427,Wildemann,51.82898,10.28248
1428,Helmstedt,52.23909615384615,10.918596153846154
1429,"Bahrdorf, Niedersachsen",52.38511,10.99917
1430,Beierstedt,52.0736143339601,10.8579478994751
1431,Büddenstedt,52.171409999999995,11.01955
1432,"Danndorf, Niedersachsen",52.42641,10.915569999999999
1433,Frellstedt,52.20487,10.91511
1434,Gevensleben,52.07636,10.82334
1435,Grafhorst,52.443740000000005,10.9452200000001
1436,Grasleben,52.30585,11.0158300000001
1437,Groß Twülpstedt,52.3671192675583,10.916614169311499
1438,Helmstedt,52.229440000000004,11.00902
1439,Ingeleben,52.106190000000005,10.87364
1440,Jerxheim,52.083510976541206,10.9001502037048
1441,Königslutter am Elm,52.25248,10.814010000000101
1442,Lehre,52.32713,10.66893
1443,Mariental bei Helmstedt,52.301390000000005,10.97645
1444,Querenhorst,52.33671,10.9622400000001
1445,Räbke,52.1950943288754,10.8799957989502
1446,Rennau,52.29606324100929,10.9112497512817
1447,Schöningen,52.13791,10.96572
1448,"Söllingen, Niedersachsen",52.0916591822496,10.926090222168
1449,"Süpplingen, Kreis Helmstedt",52.22786,10.90506
1450,Süpplingenburg,52.25043,10.91227
1451,Twieflingen,52.1256,10.91743
1452,"Velpke, Niedersachsen",52.4073561006026,10.940272883606
1453,"Warberg, Kreis Helmstedt",52.18098,10.9206
1454,"Wolsdorf, Kreis Helmstedt",52.1890856143246,10.941259560852
1455,Northeim,51.734725,9.8777725
1456,Bad Gandersheim,51.870662,10.024588
1457,Bodenfelde,51.63971,9.55738999999994
1458,"Dassel, Solling",51.80087,9.688290000000052
1459,Einbeck,51.82072,9.86814000000004
1460,Hardegsen,51.65279,9.82824000000005
1461,Kalefeld,51.7981422170856,10.0333858306885
1462,Katlenburg-Lindau,51.666561922328206,10.1130454232788
1463,Kreiensen,51.8539,9.965840000000071
1464,Moringen,51.69903,9.8691
1465,Nörten-Hardenberg,51.625820000000004,9.93538999999998
1466,Northeim,51.7005131180301,9.99606332275391
1467,Uslar,51.660509999999995,9.63797999999997
1468,Osterode am Harz,51.690625,10.3411375
1469,Bad Grund (Harz),51.80965,10.237509999999899
1470,Bad Lauterberg im Harz,51.62533,10.4615
1471,Bad Sachsa,51.5968435140671,10.5559258306885
1472,"Badenhausen, Harz",51.769355802437204,10.2070869628906
1473,"Eisdorf, Harz",51.7608566846039,10.175283068847598
1474,"Elbingerode, Niedersachsen",51.65898,10.277989999999999
1475,Gittelde,51.7975,10.187560000000001
1476,Hattorf am Harz,51.6488,10.238339999999999
1477,Herzberg am Harz,51.6517945904597,10.3375441693115
1478,Hörden am Harz,51.66838,10.283610000000001
1479,Osterode am Harz,51.72975,10.25836
1480,Walkenried,51.58813,10.6129100000001
1481,Wieda,51.6302,10.5836
1482,"Windhausen, Harz",51.78601,10.21142
1483,Wulften am Harz,51.66215,10.17633
1484,Zorge,51.61504,10.6244
1485,Peine,52.32032,10.24337
1486,Edemissen bei Peine,52.3874,10.2584899999999
1487,Hohenhameln,52.25927,10.06663
1488,Ilsede,52.26397,10.2066
1489,Lahstedt,52.24308,10.22012
1490,Lengede,52.20645,10.31241
1491,Peine,52.3203686955316,10.2434337619018
1492,Vechelde,52.260784,10.372775
1493,Wendeburg,52.32555,10.38762
1494,Wolfenbüttel,52.164229999999996,10.5403200000001
1495,"Achim, Kreis Wolfenbüttel",52.06005,10.61132
1496,Baddeckenstedt,52.0861480991576,10.232613354492099
1497,Börßum,52.06909,10.5818899999999
1498,Burgdorf bei Salzgitter,52.14404587936421,10.2175295608521
1499,Cramme,52.11315,10.44641
1500,Cremlingen,52.247279999999996,10.65189
1501,Dahlum,52.133458055169,10.8499785423279
1502,Denkte,52.1461636650399,10.6085258624267
1503,Dettum,52.17132,10.6655900000001
1504,Dorstadt,52.09813,10.564869999999999
1505,Elbe,52.08316813915529,10.2830425079346
1506,Erkerode,52.20472,10.7102
1507,Evessen,52.1904247649893,10.715000439148
1508,Flöthe,52.0828516715384,10.483128338622901
1509,Gielde,52.037620000000004,10.4931
1510,Haverlah,52.0535070828071,10.3283218200684
1511,Hedeper,52.06578,10.68088
1512,Heere,52.066713190967,10.2498927116394
1513,Heiningen bei Wolfenbüttel,52.0701,10.55605
1514,"Hornburg, Kreis Wolfenbüttel",52.03123,10.605369999999999
1515,Kissenbrück,52.110409999999995,10.58869
1516,Kneitlingen,52.17488,10.7621799999999
1517,Ohrum,52.11914,10.56367
1518,"Remlingen, Kreis Wolfenbüttel",52.11355,10.67399
1519,Roklum,52.0674386881499,10.741196423339801
1520,Schladen,52.019909999999996,10.54692
1521,Schöppenstedt,52.14519,10.77522
1522,Sehlde bei Salzgitter,52.03947,10.26805
1523,Semmenstedt,52.0941735598553,10.6977684020997
1524,Sickte,52.216594826945894,10.63703956604
1525,Uehrde,52.09919,10.764330000000001
1526,Vahlberg bei Schöppenstedt,52.133431712679794,10.716657084655699
1527,Veltheim (Ohe),52.21862,10.68242
1528,Werlaburgdorf,52.051390000000005,10.5357799999999
1529,Winnigstedt,52.06681,10.76665
1530,Wittmar,52.13088,10.64203
1531,"Wolfenbüttel, Niedersachsen",52.164177039921206,10.540377084655802
1533,Region Hannover,52.3844936156149,9.72700752380365
1534,Hannover,52.3705,9.7332
1535,Barsinghausen,52.2966,9.48058000000003
1536,"Burgdorf, Kreis Hannover",52.44724,10.00535
1537,Burgwedel,52.52975,9.79805999999996
1538,Garbsen,52.43648,9.60527999999999
1539,Gehrden / Hannover,52.31227,9.600630000000018
1540,Hemmingen / Hannover,52.3220822491819,9.72986203704841
1541,Isernhagen,52.47837,9.80134999999996
1542,Laatzen bei Hannover,52.30854,9.809009999999939
1543,"Langenhagen, Hannover",52.44801218213821,9.74497890472412
1544,Lehrte bei Hannover,52.3751,9.97721999999999
1545,Neustadt am Rübenberge,52.503780000000006,9.449780000000029
1546,Pattensen bei Hannover,52.26528,9.761349999999991
1547,Ronnenberg,52.3183264778189,9.654591941833472
1548,Seelze,52.39501,9.59397000000001
1549,Sehnde,52.31756,9.96745999999996
1550,"Springe, Deister",52.21091,9.553290000000061
1551,Uetze,52.4645902029321,10.203155423278801
1552,Wedemark,52.5474686649829,9.74573253448489
1553,Wennigsen (Deister),52.27729,9.573010000000071
1554,Wunstorf,52.421330100000006,9.43474
1555,Diepholz,52.68865744680851,8.694680638297871
1556,Affinghausen,52.78504,8.87553000000003
1557,Asendorf bei Bruchhausen-Vilsen,52.77271,9.00443999999993
1558,Bahrenborstel,52.57099,8.809849999999981
1559,Barenburg bei Sulingen,52.61946,8.80119999999999
1560,"Barnstorf, Kreis Diepholz",52.7066,8.49793
1561,Barver,52.6109948779896,8.58667959259037
1562,Bassum,52.85034,8.7287
1563,Borstel bei Sulingen,52.67066,8.97023999999999
1564,Brockum,52.46841,8.42044999999996
1565,Bruchhausen-Vilsen,52.82809,8.99185999999997
1566,"Dickel, Kreis Diepholz",52.643519999999995,8.47609999999997
1567,Diepholz,52.60584,8.37071000000003
1568,Drebber,52.6509,8.42286999999999
1569,Drentwede,52.7463,8.57465000000002
1570,Ehrenburg bei Sulingen,52.746469999999995,8.70609000000002
1571,Engeln bei Bruchhausen-Vilsen,52.79121,8.919120000000019
1572,Eydelstedt,52.7153,8.524620000000029
1573,Freistatt bei Sulingen,52.6245,8.65116
1574,Hemsloh,52.60176136053371,8.51072915344241
1575,Hüde bei Diepholz,52.495059,8.356695
1576,Kirchdorf bei Sulingen,52.596169999999994,8.83703000000003
1577,Lembruch,52.525819999999996,8.36567000000002
1578,Lemförde,52.464569999999995,8.37473999999997
1579,Maasen,52.69055,8.886690000000039
1580,"Marl, Dümmer",52.48445,8.36538999999993
1581,Martfeld,52.876419999999996,9.06273999999996
1582,Mellinghausen,52.705819999999996,8.89922999999999
1583,Neuenkirchen bei Bassum,52.77616,8.752209999999991
1584,Quernheim bei Diepholz,52.463080000000005,8.39467999999999
1585,"Rehden, Kreis Diepholz",52.60924,8.478920000000018
1586,Scholen bei Sulingen,52.73968000000001,8.76799000000005
1587,Schwaförden,52.737730000000006,8.81852000000003
1588,Schwarme,52.89734,9.018569999999949
1589,Siedenburg,52.69184,8.94102999999996
1590,Staffhorst,52.7202379824926,8.97814755554191
1591,Stemshorn,52.454609999999995,8.35992999999996
1592,Stuhr,53.0293771310114,8.736782073974611
1593,Sudwalde,52.7959521452905,8.841073608398462
1594,Süstedt,52.86168000000001,8.92160000000001
1595,Sulingen,52.68331,8.810929999999981
1596,Syke,52.912859999999995,8.817819999999982
1597,Twistringen,52.797090000000004,8.63827000000003
1598,Varrel bei Sulingen,52.621340000000004,8.73387
1599,Wagenfeld,52.54801,8.58950000000004
1600,Wehrbleck,52.631484178583,8.6907412857056
1601,Wetschen,52.612230000000004,8.44927000000007
1602,Weyhe bei Bremen,52.98285,8.85421999999994
1603,Hameln-Pyrmont,52.0895875,9.3875
1604,Aerzen,52.04793,9.26021000000003
1605,Bad Münder am Deister,52.1996701,9.46638000000007
1606,Bad Pyrmont,51.98679,9.25214000000005
1607,Coppenbrügge,52.11779,9.54615000000001
1608,"Emmerthal, Niedersachsen",52.04615,9.38564999999994
1609,Hameln,52.10887,9.36589000000004
1610,Hessisch Oldendorf,52.17203,9.245760000000018
1611,Salzhemmendorf,52.0664361798423,9.58847984130853
1612,Hildesheim,52.06208,9.89374925
1613,"Adenstedt bei Alfeld, Leine",52.0007,9.93519000000003
1614,Alfeld (Leine),51.9836964659436,9.83315833862298
1615,Algermissen,52.25278,9.970440000000051
1616,Almstedt,52.03265,9.962289999999939
1617,Bad Salzdetfurth,52.05813,10.0106900000001
1618,Banteln,52.0673067804479,9.7525749206543
1619,Betheln,52.11224,9.79128000000003
1620,Bockenem,52.00976,10.13298
1621,"Brüggen, Leine",52.04074,9.77898000000005
1622,Despetal,52.083520543670204,9.84237629119866
1623,Diekholzen,52.09382,9.91619000000003
1624,Eberholzen,52.0542,9.85257999999999
1625,Eime,52.0731,9.72343000000001
1626,"Elze, Leine",52.12122,9.738240000000019
1627,Everode,51.95003,9.915039999999982
1628,Freden (Leine),51.92862,9.897209999999971
1629,Giesen bei Hildesheim,52.19623,9.89615000000003
1630,Gronau (Leine),52.08511,9.78341
1631,Harbarnsen,51.99091,9.95861000000002
1632,Harsum,52.20968,9.96167000000003
1633,Hildesheim,52.14135,9.96602000000007
1634,Holle bei Hildesheim,52.088574114336204,10.158754730224599
1635,Lamspringe,51.960840000000005,10.01181
1636,"Landwehr bei Alfeld, Leine",51.9192765333646,9.976967021179231
1637,Neuhof bei Hildesheim,51.9803,10.032869999999999
1638,Nordstemmen,52.16312,9.78845000000001
1639,Rheden,52.058009999999996,9.78710999999998
1640,Sarstedt,52.23726,9.854360000000039
1641,Schellerten,52.18731,10.102310000000001
1642,"Sehlem, Niedersachsen",52.011379999999996,9.97483
1643,Sibbesse,52.05424,9.902370000000019
1644,Söhlde,52.189192740531,10.2322475238038
1645,"Westfeld bei Alfeld, Leine",52.04222,9.91310999999996
1646,Winzenburg,51.93778,9.93839000000003
1647,Woltershausen,51.97364,9.957580000000009
1648,Coppengrave,51.98602,9.72438
1649,Duingen,52.00522,9.69731000000002
1650,Hoyershausen,52.01921,9.75323000000003
1651,"Marienhagen bei Alfeld, Leine",52.037009999999995,9.68651999999997
1652,Weenzen,52.02089,9.672310000000039
1653,Holzminden,51.890109375,9.5421871875
1654,Arholzen,51.8666,9.57041000000004
1655,"Bevern, Kreis Holzminden",51.8574,9.49436000000003
1656,Bodenwerder,51.97991,9.50916000000007
1657,Boffzen,51.731929718252104,9.448346746521
1658,Brevörde,51.9121468496109,9.429887926025462
1659,Deensen,51.859714155771506,9.594132829361119
1660,Delligsen,51.94123,9.802010000000001
1661,Derental,51.695170000000005,9.43173000000002
1662,Dielmissen,51.97022,9.60723000000007
1663,Eimen,51.87725,9.780650000000039
1664,"Eschershausen, Ith",51.9296,9.63922000000002
1665,"Fürstenberg, Weser",51.72876,9.40271000000007
1666,Golmbach,51.89975,9.54498000000001
1667,"Halle, Kreis Holzminden",51.99053,9.56191000000001
1668,Hehlen bei Holzminden,51.98538,9.470249999999961
1669,Heinade,51.83916,9.63291000000004
1670,"Heinsen, Weser",51.8838297998633,9.435561597900461
1671,"Heyen, Kreis Holzminden",52.007870000000004,9.504810000000019
1672,Holenberg,51.90987,9.58590000000004
1673,"Holzen, Kreis Holzminden",51.9343,9.66766000000007
1674,Holzminden,51.82612,9.46006
1675,Kirchbrak,51.96307,9.57236
1676,Lauenförde,51.65954,9.386430000000018
1677,Lenne am Solling,51.89509,9.68154000000004
1678,Lüererdissen am Ith,51.9522218143122,9.625424730224609
1679,Negenborn bei Holzminden,51.89154,9.5719
1680,"Ottenstein, Niedersachsen",51.9458205748092,9.408325576782198
1681,Pegestorf,51.92787,9.498180000000051
1682,"Polle, Weser",51.89798745159221,9.403175735473608
1683,Stadtoldendorf,51.8826255600708,9.628370666503882
1684,Vahlbruch,51.920790000000004,9.34099
1685,Wangelnstedt,51.8691114290211,9.687964857177802
1686,Nienburg (Weser),52.611847297297295,9.155330135135136
1687,Balge,52.7184,9.18648
1688,Binnen,52.6193,9.132309999999961
1689,Bücken bei Hoya,52.7795,9.13844
1690,Diepenau,52.42176,8.73274000000004
1691,Drakenburg,52.691167424868496,9.22883532806395
1692,"Estorf, Weser",52.5925,9.14739
1693,Estorf,52.5881,9.1415
1694,Leeseringen,52.5975,9.15328
1695,Eystrup,52.7764,9.21752
1696,Gandesbergen,52.7602,9.2227
1697,Hämelhausen,52.7804,9.28035
1698,Hassel (Weser),52.8024,9.20549
1699,Haßbergen,52.7296,9.230089999999999
1700,Heemsen,52.705259999999996,9.25217999999995
1701,"Anderten, Kreis Nienburg, Weser",52.739603930514896,9.321815391540552
1702,Gadesbünden,52.71419,9.276100000000039
1703,Heemsen,52.7427,9.26335
1704,Lichtenmoor,52.70553,9.305540000000061
1705,Hilgermissen,52.8442,9.15605
1706,"Hoya, Weser",52.8065,9.139569999999999
1707,Hoyerhagen,52.8289,9.08564
1708,"Husum, Kreis Nienburg",52.56494,9.25058000000001
1709,Landesbergen,52.558330000000005,9.12719000000004
1710,Brokeloh,52.5463,9.20846
1711,Heidhausen,52.5427,9.14445
1712,Landesbergen,52.5625,9.12458
1713,"Hahnenberg, Kreis Nienburg, Weser",52.5306,9.12311
1714,"Leese, Weser",52.50448000000001,9.11532999999997
1715,"Liebenau, Kreis Nienburg",52.606386641010396,9.08711796295165
1716,Linsburg,52.59313,9.30458999999996
1717,Marklohe,52.662384248725004,9.15183294708254
1718,Nienburg (Weser),52.6493,9.23655
1719,Erichshagen-Wölpe,52.6645,9.24487
1720,"Holtorf, Weser",52.6757,9.22713
1721,"Langendamm, Kreis Nienburg, Weser",52.6173,9.26039
1722,Nienburg (Weser),52.6397,9.21383
1723,Pennigsehl,52.6478,9.02979
1724,Raddestorf,52.4552,8.963460000000001
1725,Rehburg-Loccum,52.4508,9.20787
1726,Bad Rehburg,52.4382,9.21509
1727,Loccum,52.4539,9.14592
1728,Münchehagen,52.4395,9.1886
1729,Rehburg,52.47521,9.22946999999999
1730,Winzlar,52.4476,9.260710000000001
1731,Rodewald,52.6658,9.48212
1732,"Rohrsen, Kreis Nienburg",52.7099,9.23231
1733,Schweringen,52.7481,9.18352
1734,Steimbke,52.6622,9.40414
1735,Lichtenhorst,52.7188,9.40156
1736,Steimbke,52.6555,9.391210000000001
1737,Wendenborstel,52.6469,9.43482
1738,Steyerberg,52.5846,8.99484
1739,Deblinghausen,52.593819999999994,8.96942000000001
1740,"Düdinghausen, Kreis Nienburg, Weser",52.5786,8.97081
1741,Steyerberg,52.5679,9.02598
1742,Voigtei,52.6083,8.92252
1743,Wellie,52.5755,9.07896
1744,Stöckse,52.6357,9.33874
1745,"Wenden, Kreis Nienburg, Weser",52.6276,9.38899
1746,"Stolzenau, Weser",52.5079,9.03611
1747,Anemolter,52.5454,9.07013
1748,"Diethe bei Stolzenau, Weser",52.4736,9.00832
1749,"Frestorf bei Stolzenau, Weser",52.4857,9.0039
1750,"Hibben, Weser",52.5023,9.02892
1751,"Holzhausen, Weser",52.5207,9.05688
1752,Müsleringen,52.4893,9.02745
1753,"Nendorf bei Stolzenau, Weser",52.49969,8.986130000000001
1754,Schinna,52.5364,9.07307
1755,Stolzenau,52.51719,9.069960000000039
1756,Anemolter-Schinna,52.5409,9.0716
1757,Uchte,52.4992,8.90905
1758,Warmsen,52.45251999999999,8.84962999999993
1759,Warpe,52.7404,9.10518
1760,Wietzen,52.7103,9.0734
1761,Schaumburg,52.2939525,9.2145336875
1762,Ahnsen bei Stadthagen,52.256029999999996,9.096139999999991
1763,Apelern,52.3023,9.31588
1764,Apelern,52.2895,9.33355
1765,Groß Hegesdorf,52.3088,9.3065
1766,Kleinhegesdorf,52.3178,9.32185
1767,Lyhren,52.3007,9.31893
1768,"Reinsdorf, Kreis Grafschaft Schaumburg",52.2895,9.28969
1769,Soldorf,52.3079,9.32477
1770,Auetal,52.2403,9.23321
1771,"Altenhagen, Kreis Grafschaft Schaumburg",52.2611,9.05723
1772,Antendorf,52.2405,9.29261
1773,"Bernsen, Kreis Grafschaft Schaumburg",52.2211,9.17053
1774,"Borstel, Kreis Grafschaft Schaumburg",52.2292,9.19466
1775,Escher,52.2373,9.26702
1776,"Hattendorf, Kreis Grafschaft Schaumburg",52.2346,9.28238
1777,Kathrinhagen,52.2364,9.20635
1778,Klein Holtensen,52.2611,9.286760000000001
1779,Poggenhagen bei Rinteln,52.2288,9.20562
1780,"Raden, Kreis Grafschaft Schaumburg",52.2297,9.31015
1781,Rannenberg bei Rinteln,52.2166,9.24729
1782,Rehren bei Rinteln,52.23397,9.235840000000051
1783,"Rolfshagen, Kreis Grafschaft Schaumburg",52.2319,9.144219999999999
1784,Schoholtensen,52.2679,9.28603
1785,Westerwald bei Rinteln,52.2499,9.23705
1786,Wiersen,52.26553,9.30664000000002
1787,Auhagen,52.39342,9.283239999999982
1788,Auhagen,52.3934143041495,9.2837879312134
1789,"Düdinghausen, Kreis Grafschaft Schaumburg",52.4139,9.2975
1790,Bad Eilsen,52.2414,9.10255
1791,Bad Nenndorf,52.3407,9.36717
1792,Bad Nenndorf,52.3358,9.3774
1793,"Horsten, Kreis Grafschaft Schaumburg",52.3393,9.35182
1794,Riepen,52.3447,9.33428
1795,"Waltringhausen, Kreis Grafschaft Schaumburg",52.3429,9.40518
1796,Beckedorf bei Stadthagen,52.3443,9.31673
1797,Buchholz bei Stadthagen,52.2261,9.12375
1798,Bückeburg,52.2845,9.04948
1799,Achum,52.2868,9.08501
1800,Bergdorf,52.2548,9.06235
1801,Bückeburg,52.2607,9.04919
1802,Cammer,52.3119,8.99656
1803,Evesen,52.2818,8.99437
1804,Luhden-Selliendorf,52.2252,9.092319999999999
1805,Meinsen,52.2966,9.05211
1806,Müsingen,52.2701,9.07258
1807,Rusbend,52.3119,9.06819
1808,Scheie,52.27628,9.05425000000002
1809,Warber,52.2939,9.060880000000001
1810,Hagenburg bei Wunstorf,52.4341,9.3317
1811,Altenhagen,52.4382,9.3431
1812,Hagenburg,52.4301,9.320310000000001
1813,Haste bei Wunstorf,52.3798,9.39202
1814,Heeßen,52.2346,9.10694
1815,Helpsen,52.3035,9.125210000000001
1816,Helpsen,52.31072,9.120009999999981
1817,Kirchhorsten,52.3029,9.13252
1818,Südhorsten,52.2966,9.12594
1819,Hespe bei Stadthagen,52.3248,9.1101
1820,Hespe-Hiddensen,52.3335,9.10474
1821,"Levesen, Kreis Schaumb-Lippe",52.3214,9.11936
1822,"Stemmen, Kreis Schaumb-Lippe",52.3196,9.10621
1823,Heuerßen,52.328601905685396,9.27867793121345
1824,Heuerßen,52.3294,9.27872
1825,Kobbensen,52.3384,9.29042
1826,Hohnhorst bei Wunstorf,52.3657,9.35401
1827,Hohnhorst,52.36947,9.37130000000002
1828,Ohndorf,52.3551,9.34963
1829,"Rehren bei Rodenberg, Deister",52.3731,9.340860000000001
1830,Hülsede,52.2493,9.36278
1831,Hülsede,52.2499,9.36132
1832,Meinsen,52.2553,9.35255
1833,Schmarrie,52.2427,9.37448
1834,Lauenau,52.2782,9.3785
1835,Feggendorf,52.2836,9.38764
1836,Lauenau,52.2728,9.36936
1837,Lauenhagen bei Stadthagen,52.3629,9.21805
1838,Hülshagen,52.368159999999996,9.216940000000019
1839,Lauenhagen,52.3569,9.20928
1840,Lindhorst bei Stadthagen,52.35817,9.28339000000005
1841,Lindhorst,52.3578,9.28311
1842,"Ottensen, Kreis Grafschaft Schaumburg",52.3681,9.29919
1843,"Schöttlingen, Kreis Schaumb-Lippe",52.3479,9.27872
1844,Lüdersfeld,52.3497,9.25057
1845,Lüdersfeld,52.3582,9.25094
1846,Vornhagen,52.3411,9.250210000000001
1847,Luhden,52.2243,9.08281
1848,Schermbeck,52.2234,9.07258
1849,Meerbeck bei Stadthagen,52.3393,9.13374
1850,Kuckshagen,52.3358,9.1296
1851,Meerbeck,52.34272,9.150020000000039
1852,Volksdorf,52.3402,9.11936
1853,Messenkamp,52.260082000000004,9.379738
1854,Altenhagen II,52.2616,9.39933
1855,Messenkamp,52.2589,9.394219999999999
1856,Niedernwöhren,52.3519,9.1486
1857,Nienstädt bei Stadthagen,52.2898562524757,9.1628205978393
1858,Liekwegen,52.2863,9.17448999999999
1859,Nienstädt,52.28985,9.16275999999993
1860,Nordsehl,52.3555,9.18223
1861,Obernkirchen,52.2665,9.11775
1862,Gelldorf,52.2836,9.11863
1863,Krainhagen,52.2499,9.12229
1864,Obernkirchen,52.2701,9.12887
1865,Röhrkasten,52.2562,9.116439999999999
1866,"Vehlen, Kreis Schaumb-Lippe",52.2728,9.10255
1867,Pohle,52.2638,9.340119999999999
1868,Pollhagen,52.3766,9.188080000000001
1869,Rinteln,52.20205,9.07592
1870,"Ahe, Kreis Grafschaft Schaumburg",52.1843,9.13849
1871,Deckbergen,52.2018,9.168339999999999
1872,"Engern, Kreis Grafschaft Schaumburg",52.1946,9.10719
1873,Exten,52.1694,9.09628
1874,Friedrichswald,52.1348,9.14795
1875,"Goldbeck, Kreis Grafschaft Schaumburg",52.1034,9.151589999999999
1876,"Hohenrode, Kreis Grafschaft Schaumburg",52.1712,9.149410000000001
1877,"Kohlenstädt, Kreis Grafschaft Schaumburg",52.1856,9.149410000000001
1878,Krankenhagen,52.1537,9.08099
1879,"Möllenbeck, Kreis Grafschaft Schaumburg",52.1645,9.0315
1881,"Schaumburg, Kreis Grafschaft Schaumburg",52.20111,9.19529
1882,"Steinbergen, Wesergebirge",52.2099,9.1201
1883,Todenmann,52.2122,9.05357
1884,"Uchtdorf, Kreis Grafschaft Schaumburg",52.1578,9.09919
1885,"Volksen, Kreis Grafschaft Schaumburg",52.1429,9.10719
1886,Wennenkamp,52.1447,9.13776
1887,Westendorf,52.2032,9.14787
1888,Strücken,52.1668,9.11593
1889,"Rodenberg, Deister",52.3178,9.34999
1890,Algesdorf,52.3241,9.34305
1891,Rodenberg,52.3115,9.35694
1892,Sachsenhagen,52.3901,9.24729
1893,Nienbrügge,52.3829,9.22682
1894,Sachsenhagen,52.3969,9.26702
1895,Seggebruch,52.31122,9.11063000000001
1896,Schierneichen-Deinsen,52.3124,9.09305
1897,Seggebruch,52.31119,9.11037999999996
1898,Tallensen-Echtorf,52.2926,9.09159
1899,Stadthagen,52.3137,9.21318
1900,"Enzen, Kreis Schaumb-Lippe",52.32456,9.15733999999998
1901,Habichhorst,52.31597,9.232920000000039
1902,"Hobbensen, Kreis Schaumb-Lippe",52.3236,9.144219999999999
1903,Hörkamp-Langenbruch,52.2917,9.232669999999999
1904,Krebshagen,52.3011,9.20562
1905,Obernwöhren,52.3029,9.2429
1906,Probsthagen,52.3416,9.232669999999999
1907,Reinsen-Remeringhausen,52.3182,9.271410000000001
1908,Stadthagen,52.3232,9.19904
1909,Wendthagen-Ehlen,52.2935,9.20562
1910,Blyinghausen,52.3169,9.2524
1911,Habichhorst-Blyinghausen,52.3164,9.24399
1912,Suthfeld,52.3576,9.389339999999999
1913,Helsinghausen,52.3641,9.38618
1914,Kreuzriehe,52.35595,9.38571999999999
1915,Riehe,52.3528,9.39568
1916,Wiedensahl,52.3825,9.11936
1917,Wölpinghausen,52.4195,9.25574
1918,"Bergkirchen, Kreis Schaumb-Lippe",52.41252,9.25689
1919,Schmalenbruch-Windhorn,52.4193,9.27322
1920,Wiedenbrügge,52.4269,9.25997
1921,Wölpinghausen,52.4189,9.23275
1923,Celle,52.616890000000005,10.06343
1924,Adelheidsdorf,52.5736693219841,10.0665965502931
1925,Ahnsbeck,52.61094,10.2852
1926,Beedenbostel,52.642265117903996,10.259502915344198
1927,Bergen (Kreis Celle),52.809740000000005,9.96279000000004
1928,"Bröckel, Kreis Celle",52.5171439575424,10.214554232788
1929,Celle,52.617090000000005,10.0635
1930,Eicklingen,52.54861999999999,10.1857199999999
1931,Eldingen,52.68363000000001,10.34383
1932,Eschede,52.734359999999995,10.2349
1933,Faßberg,52.8996,10.166310000000001
1934,Habighorst,52.70851999999999,10.22771
1935,Hambühren,52.629290000000005,9.967039999999999
1936,Hermannsburg,52.8359,10.093319999999899
1937,"Höfer, Kreis Celle",52.6822333248282,10.2484979629517
1938,Hohne bei Celle,52.58764,10.37674
1939,"Lachendorf, Kreis Celle",52.61962,10.24173
1940,Langlingen bei Celle,52.555859999999996,10.281239999999999
1941,Nienhagen bei Celle,52.556869999999996,10.10517
1942,"Scharnhorst, Kreis Celle",52.72452,10.27332
1943,Unterlüß,52.84503,10.2907299999999
1944,Wathlingen,52.537769999999995,10.148430000000001
1945,Wienhausen,52.57761,10.18625
1946,Wietze,52.65026999999999,9.835730000000009
1947,Winsen (Aller),52.683525384888895,9.90973775463101
1948,Cuxhaven,53.61178103448276,8.827873620689655
1949,Appeln,53.4527,8.896189999999999
1950,"Armstorf, Niederelbe",53.59799,9.07335
1951,Bad Bederkesa,53.626430000000006,8.84382000000005
1952,Belum,53.81723,8.9931
1953,Beverstedt,53.4311,8.82124999999996
1954,Bokel bei Bremerhaven,53.394569999999995,8.76761999999997
1955,Bramstedt bei Bremerhaven,53.366369999999996,8.68935999999997
1956,Bülkau,53.7471,8.97896
1957,Cadenberge,53.767830000000004,9.06902
1958,Cappel bei Bremerhaven,53.727830000000004,8.569770000000059
1959,Cuxhaven,53.8618,8.693589999999999
1960,Dorum bei Bremerhaven,53.68974,8.56716000000006
1961,Drangstedt,53.61489,8.74649999999997
1962,Driftsethe,53.3791530457135,8.6195882434082
1963,Elmlohe,53.5864,8.74220000000003
1964,Flögeln,53.66356999999999,8.802570000000062
1965,Frelsdorf,53.491319999999995,8.899400000000009
1966,"Geversdorf, Niederelbe",53.796040000000005,9.078610000000001
1967,Hagen im Bremischen,53.35839,8.64605000000006
1968,Hechthausen,53.641169999999995,9.23718
1969,Heerstedt,53.465469999999996,8.75212999999997
1970,Hemmoor,53.69002,9.152519999999999
1971,Hollen bei Bremerhaven,53.424380000000006,8.70502999999997
1972,Hollnseth,53.56972,9.09167
1973,Ihlienworth,53.73911,8.915569999999999
1974,Kirchwistedt,53.42332,8.89144999999996
1975,Köhlen bei Bremerhaven,53.5406,8.87702999999999
1976,Kührstedt,53.57786,8.801159999999982
1977,Lamstedt,53.63519,9.09732
1978,Langen bei Bremerhaven,53.61026999999999,8.60697000000005
1979,Lintig,53.60386,8.88094999999998
1980,Loxstedt,53.47308,8.6472
1981,Lunestedt,53.439659999999996,8.74247000000003
1982,Midlum bei Bremerhaven,53.73129,8.617960000000041
1983,Misselwarden,53.674459999999996,8.51608999999996
1984,Mittelstenahe,53.65109,9.03905
1985,Mulsum bei Bremerhaven,53.66961,8.54733999999996
1986,"Neuenkirchen, Land Hadeln",53.777730000000005,8.89297
1987,Neuhaus (Oste),53.8015,9.03311
1988,Nordholz bei Bremerhaven,53.78675,8.612399999999981
1989,Nordleda,53.76308,8.835469999999999
1990,"Oberndorf, Oste",53.75166,9.14349
1991,Odisheim,53.694390000000006,8.94117
1992,"Osten, Oste",53.69471,9.18924
1993,"Osterbruch, Niederelbe",53.77811,8.94164
1994,"Otterndorf, Niederelbe",53.80826999999999,8.89921
1995,Padingbüttel,53.69931999999999,8.52735000000007
1996,Ringstedt,53.5610415414213,8.85274658203127
1997,Sandstedt,53.36002,8.52035999999998
1998,Schiffdorf,53.53111,8.65201999999999
1999,"Steinau, Niederelbe",53.682809999999996,8.869539999999999
2000,"Stinstedt, Niederelbe",53.65968,8.971960000000001
2001,Stubben bei Bremerhaven,53.409459999999996,8.784689999999959
2002,Uthlede,53.310190000000006,8.57752000000005
2003,Wanna,53.74207,8.80898999999999
2004,Wingst,53.736259999999994,9.08798
2005,Wremen,53.649069999999995,8.51010999999994
2006,Wulsbüttel,53.316430807933905,8.669416582031321
2007,Harburg,53.3085,9.971780930232558
2008,"Appel, Nordheide",53.39063,9.74374999999998
2009,"Asendorf, Nordheide",53.293690000000005,9.98169000000007
2010,Bendestorf,53.3370869496726,9.96838661376955
2011,"Brackel bei Winsen, Luhe",53.29971999999999,10.04637
2012,Buchholz in der Nordheide,53.266059999999996,9.883103
2013,"Dohren, Nordheide",53.30506999999999,9.70065999999997
2014,"Drage, Elbe",53.41044,10.26114
2015,Drestedt,53.33005,9.760060000000001
2016,"Egestorf, Nordheide",53.19335,10.0625199999999
2017,"Eyendorf, Lüneburger Heide",53.20341,10.1563
2018,Garlstorf am Walde,53.23695,10.1006
2019,"Garstedt, Winsener Geest",53.28795,10.154639999999999
2020,Gödenstorf,53.229890000000005,10.13025
2021,Halvesbostel,53.3553,9.5986
2022,Handeloh,53.244890000000005,9.84127000000001
2023,"Hanstedt, Nordheide",53.2576701,10.01041
2024,"Harmstorf, Kreis Harburg",53.3486166459425,9.98663448150637
2025,"Heidenau, Nordheide",53.314640000000004,9.65092000000004
2026,"Hollenstedt, Nordheide",53.36577,9.71482000000003
2027,Jesteburg,53.314609999999995,9.95568000000003
2028,Kakenstorf,53.30548,9.76196000000004
2029,"Königsmoor, Nordheide",53.23503,9.62900999999999
2030,Marschacht,53.41477,10.36852
2031,"Marxen, Auetal",53.31324,10.00281
2032,Moisburg,53.4062172343099,9.69742507934575
2033,"Neu Wulmstorf, Niederelbe",53.46442,9.800460000000001
2034,Otter,53.240219999999994,9.74176999999997
2035,Regesbostel,53.3806701,9.647950000000039
2036,"Rosengarten, Kreis Harburg",53.377109999999995,9.898530000000001
2037,"Salzhausen, Lüneburger Heide",53.222609999999996,10.16985
2038,Seevetal,53.38075,10.03942
2039,"Stelle, Kreis Harburg",53.38454,10.10294
2040,Tespe,53.39699,10.410730000000001
2041,Toppenstedt,53.263819999999996,10.113760000000001
2042,Tostedt,53.278569999999995,9.72122999999999
2043,Undeloh,53.198640000000005,9.978039999999961
2044,"Vierhöfen bei Winsen, Luhe",53.26936,10.21475
2045,"Welle, Nordheide",53.23490542787311,9.80349760055537
2046,Wenzendorf,53.350719999999995,9.77087000000006
2047,Winsen (Luhe),53.365230000000004,10.20917
2048,"Wistedt, Nordheide",53.27019,9.67778999999996
2049,Wulfsen,53.2998,10.14058
2050,Lüchow-Dannenberg,53.02447168141593,11.034896460176991
2051,Bergen an der Dumme,52.8897,10.9418
2052,"Banzau, Dumme",52.8877,10.9354
2053,"Belau, Dumme",52.8757,10.9483
2054,Bergen,52.8908,10.9566
2055,Jiggel,52.907630000000005,10.96149
2056,"Malsleben, Dumme",52.8742,10.9229
2057,"Nienbergen, Dumme",52.86181,10.9446
2058,Spithal,52.9046,10.9131
2059,"Wöhningen, Dumme",52.8984,10.9266
2060,Brüchauer Mühle,52.9073,10.9455
2061,Clenze,52.9474,10.9295
2062,"Bausen, Kreis Lüchow-Dannenberg",52.9685,10.9895
2063,Beseland,52.9584,10.9614
2064,Bösen,52.9338,10.9389
2065,Braudel,52.9834583707009,10.873334812164302
2066,Bussau,52.9558,10.9907
2067,Clenze,52.9368,10.9574
2068,Dalitz,52.9256,10.9711
2069,Gistenbeck,52.9274,10.9835
2070,Gohlefanz,52.9653,10.8988
2071,"Granstedt, Kreis Lüchow-Dannenberg",52.9632,10.9953
2072,Groß Sachau,52.94854,10.99659
2073,Guhreitzen,52.9523,10.9794
2074,"Kassau, Niedersachsen",52.91311999999999,10.946769999999999
2075,Kloster,52.9638,10.9021
2076,Korvin,52.9481,10.9383
2077,Kussebode,52.92199,11.00048
2078,Lefitz,52.9459,10.9266
2079,Meußließen,52.9403,10.8805
2080,Mützen,52.9401,10.9384
2081,Prießeck,52.9668,10.9737
2082,Quartzau,52.9418,10.8948
2083,Reddereitz,52.9655,10.9075
2084,Satkau,52.950590000000005,10.8822299999999
2085,Schlannau,52.95205,10.89792
2086,Seelwig,52.958830000000006,10.95304
2087,Vaddensen,52.9795,10.8878
2088,Damnatz,53.13531,11.176110000000001
2089,Barnitz,53.1471,11.1702
2090,Damnatz,53.13462,11.1776
2091,Jasebeck,53.1618,11.1385
2092,Landsatz,53.1516,11.1659
2093,Kamerun,53.1156,11.1863
2094,Dannenberg (Elbe),53.0904,11.0924
2095,Breese in der Marsch,53.1099,11.1326
2096,Bückau,53.0761,11.1116
2097,Dambeck,53.1192,11.1243
2098,Dannenberg,53.0977,11.0943
2099,"Groß Heide, Kreis Lüchow-Dannenberg",53.0538,11.1448
2100,Gümse,53.1126,11.143839999999999
2101,"Klein Heide, Kreis Lüchow-Dannenberg",53.061780000000006,11.13303
2102,Liepehöfen,53.06405,11.11779
2103,"Lüggau, Elbe",53.0977,11.0756
2104,Nebenstedt,53.0977,11.1266
2105,"Niestedt, Elbe",53.0818,11.0576
2106,Penkefitz,53.1373,11.1387
2107,"Pisselberg, Elbe",53.1126,11.0753
2108,"Prabstorf, Kreis Lüchow-Dannenberg",53.0699,11.1204
2109,"Predöhlsau, Elbe",53.1211,11.1008
2110,Prisser,53.0857,11.0696
2111,"Riekau, Kreis Lüchow-Dannenberg",53.0719,11.0509
2112,"Riskau, Kreis Lüchow-Dannenberg",53.1089,11.0325
2113,"Schaafhausen, Kreis Lüchow-Dannenberg",53.0734,11.0696
2114,Schmarsau,53.0869,11.0541
2115,Seedorf,53.12007,11.14837
2116,"Sipnitz, Elbe",53.1134,11.1648
2117,Soven,53.0594,11.1196
2118,Splietau,53.0926,11.1438
2119,"Streetz, Kreis Lüchow-Dannenberg",53.1086,11.0593
2120,"Tramm, Kreis Lüchow-Dannenberg",53.0645,11.0731
2121,"Tripkau, Kreis Lüchow-Dannenberg",53.1054,11.0405
2122,"Neu Tramm, Kreis Lüchow-Dannenberg",53.0595,11.0563
2123,Seybruch,53.10343,11.14903
2124,"Gartow, Elbe",53.0052558798983,11.4043849731445
2125,"Falkenmoor, Elbe",53.0147870908757,11.436806880950902
2126,Gartow,53.0251,11.4604
2127,"Laasche, Elbe",53.0399548194304,11.4149870529175
2128,Nienwalde,53.0051,11.4879
2129,"Quarnstedt, Elbe",53.0258,11.4681
2130,"Rondel, Elbe",53.0108745120271,11.3895064735412
2131,Rucksmoor,53.0034,11.4423
2132,Schwedenschanze,53.0719,11.4384
2133,Göhrde,53.1233118884421,10.846874111022998
2134,Bredenbock,53.1357,10.9522
2135,Dübbekold,53.1465,10.8859
2136,Göhrde,53.1399,10.8794
2137,Govelin,53.14759,10.93613
2138,Kollase,53.1139,10.8986
2139,"Mailage, Kreis Lüchow-Dannenberg",53.1221,10.9108
2140,"Metzingen, Niedersachsen",53.1298,10.9572
2141,Nadlitz,53.14581999999999,10.86839
2142,"Plumbohm, Kreis Lüchow-Dannenberg",53.113969999999995,10.95014
2143,Sarenseck,53.1266,11.01892
2144,"Schmardau, Kreis Lüchow-Dannenberg",53.112140000000004,10.9688599999999
2145,"Schmessau, Kreis Lüchow-Dannenberg",53.1219,10.9418
2146,Schnadlitz,53.12866999999999,10.90484
2147,Tollendorf,53.142540000000004,10.9605300000001
2148,"Wedderien, Kreis Lüchow-Dannenberg",53.0981,10.9481
2149,"Zienitz, Elbe",53.1083,10.8853
2150,Gorleben,53.0477,11.3717
2151,Gorleben,53.047309999999996,11.3561500000001
2152,Meetschow,53.04725,11.38768
2153,Gusborn,53.0745,11.2012
2154,Groß Gusborn,53.0788,11.2165
2155,Klein Gusborn,53.08373,11.194980000000001
2156,"Quickborn, Kreis Lüchow-Dannenberg",53.1065,11.1956
2157,Siemen,53.0541,11.2224
2158,Zadrau,53.05011999999999,11.17566
2159,Hitzacker (Elbe),53.1598,10.9995
2160,Bahrendorf,53.1866,10.9459
2161,"Grabau, Elbe",53.1284,11.0838
2162,Harlingen,53.1503,10.9813
2163,Hitzacker,53.1507,11.0411
2164,Kähmen,53.1188,11.0538
2165,"Meudelfitz, Gut",53.16118,10.993739999999999
2166,"Meudelfitz, Siedlung",53.1606,10.9932
2167,"Nienwedel, Elbe",53.1349,11.0057
2168,"Posade, Forsthaus",53.1573,10.9627
2169,Pussade,53.1476,10.9854
2170,Sarchem,53.1476,11.0022
2171,Seerau,53.1277,11.0553
2172,Tiesmesland,53.1898,10.9791
2173,Tießau,53.1802,10.9836
2174,Wietzetze bei Hitzacker,53.1845,10.9314
2175,Wussegel,53.0589,11.0786
2176,Eichengrund,53.1535,11.0157
2177,"Hagen, Gut",53.1437,11.0232
2178,Leitstade,53.1573,10.9026
2179,Höhbeck,53.0561,11.4344
2180,"Brünkendorf, Elbe",53.05605,11.42998
2181,Pevestorf,53.0584,11.4534
2182,Restorf,53.0417,11.4444
2183,Vietze,53.0694,11.4064
2184,Jameln,53.0413,11.0471
2185,Breese im Bruche,53.0518,11.0906
2186,Breselenz,53.0384,11.0612
2187,Breustian,53.0329,11.0344
2188,Jameln,53.0411,11.0768
2189,Langenhorst,53.04291,11.11812
2190,Mehlfien,53.0436,11.0091
2191,Platenlaase,53.0331,11.082239999999999
2192,Teichlosen,53.035109999999996,11.02334
2193,Volkfien,53.0434,11.0329
2194,Wibbese,53.0512,11.0006
2195,Hoheluft,53.0469,11.0217
2196,Jamelner Mühle,53.04581999999999,11.096119999999999
2197,Karwitz,53.0884,11.0166
2198,Dragahn,53.0918,10.9754
2199,Gamehlen,53.070280000000004,11.0264999999999
2200,Karwitz,53.0869,11.0166
2201,Lebbien,53.0856,11.0293
2202,Lenzen,53.0899,11.0095
2203,Nausen,53.0886,11.0022
2204,Pudripp,53.0822,10.9373
2205,Thunpadel,53.0912,11.0284
2206,Pudripp / Bahnhof,53.0734,10.9435
2207,Küsten,52.978480000000005,11.0618899999999
2208,Karmitz,53.0076,11.0627
2209,Klein Witzeetze,53.0261,11.0089
2210,Krummasel,53.0121,11.0484
2211,Saggrian,53.01959,11.0237999999999
2212,Sallahn,53.0249,10.9977
2213,Tolstefanz,53.0043,11.0316
2214,Tüschau,53.0191,11.0182
2215,Oldemühle,52.9984,11.0655
2216,"Langendorf, Elbe",53.105290000000004,11.2431300000001
2217,"Lemgow, Niedersachsen",52.917109815236394,11.283607962951699
2218,Luckau (Wendland),52.92426999999999,11.04552
2219,Lübbow,52.91085142554971,11.181111317444
2220,Lüchow (Wendland),52.9694,11.15616
2221,Neu Darchau,53.228519999999996,10.8877
2222,Prezelle,52.96334,11.4009599999999
2223,Schnackenburg,53.0377386056206,11.5618076507568
2224,Schnega,52.8828,10.8701
2225,"Billerbeck, Kreis Lüchow-Dannenberg",52.8735,10.8726
2226,"Gielau, Kreis Lüchow-Dannenberg",52.8587,10.8511
2227,"Gledeberg, Kreis Lüchow-Dannenberg",52.882290000000005,10.85942
2228,Göhr,52.9004,10.8779
2229,Grotenhof,52.90395,10.89669
2230,"Harpe, Kreis Lüchow-Dannenberg",52.8517,10.8843
2231,Kreyenhagen,52.9232,10.8771
2232,"Külitz, Kreis Lüchow-Dannenberg",52.8677,10.8592
2233,Leisten,52.8772,10.9025
2234,Loitze,52.90469,10.83457
2235,Lütenthien,52.8951,10.8639
2236,Molden,52.89425,10.83227
2237,Oldendorf,52.8917,10.9072
2238,Proitze,52.8912,10.8355
2239,"Schäpingen, Kreis Lüchow-Dannenberg",52.8651,10.8391
2240,Schnega,52.8901,10.8922
2241,Schnega / Bahnhof,52.86936,10.890310000000001
2242,Solkau,52.9102,10.8392
2243,Starrel,52.9204,10.9094
2244,"Thune, Kreis Lüchow-Dannenberg",52.8553,10.9125
2245,"Warpke, Kreis Lüchow-Dannenberg",52.8616,10.8674
2246,Winterweyhe,52.9154,10.8986
2247,Proitzer Mühle,52.8912,10.8455
2248,Oldendorfer Mühle,52.8959,10.9074
2249,Harper Mühle,52.8563,10.8942
2250,Gielauer Mühle,52.8623,10.8569
2251,Bahnhof Varbitz,52.8678,10.8041
