name,lat,lon
Bundesrepublik Deutschland,51.16766,10.42498
Hohndorf,50.611878999999995,12.135525999999999
Grünbach,48.698890000000006,9.842889999999999
Alt Ruppin,52.947222,12.849444
Buskow,52.867369999999994,12.81375
Krangen,52.985,12.854444
Stöffin,52.947222,12.849444
Temnitz,52.933333,12.666667
Lauterbach (Rügen),54.343132,13.500345000000001
Muglitz,54.34143100000001,13.552315
Flensburg,54.780469999999994,9.43522
Kiel,54.322683584791406,10.135858482122499
Kiel,54.3226843669499,10.1358638465405
Hansestadt Lübeck,53.86956,10.68758
Lübeck,53.86956,10.68713
Neumünster,54.074040000000004,9.98453
Neumünster,54.07402,9.984511999999999
Dithmarschen,54.147436752136755,9.111395811965812
Albersdorf,54.144318999999996,9.284703
Arkebek,54.160343000000005,9.248884
Averlak,53.9404157919798,9.18355818681993
Bargenstedt,54.0928582831399,9.14927636427873
Barkenholm,54.2375297612527,9.17432792628352
Barlt,54.00761,9.05485
Bergewöhrden,54.3185725084857,9.2107603713328
Brickeln,54.00854216433721,9.22108787887367
Brunsbüttel,53.897863,9.128617
Buchholz,53.988560899646,9.22420527630123
Büsum,54.131280000000004,8.86236
Büsumer Deichhausen,54.13641,8.88819
Bunsoh,54.1643385813622,9.325005711561001
Burg (Dithmarschen),54.000347,9.258527
Busenwurth,54.038159217082004,9.04110522413804
Dellstedt,54.238015699962304,9.36912670875148
Delve,54.303790273944905,9.25210461164061
Diekhusen-Fahrstedt,53.9386537931351,9.0259316920546
Dingen,53.9577562994337,9.128844028642499
Dörpling,54.260708931503295,9.30188574040476
Eddelak,53.9459641812068,9.13729432814392
Eggstedt,54.05398569541511,9.25806160601902
Elpersbüttel,54.07122,9.04626
Epenwöhrden,54.11261999999999,9.0532
Fedderingen,54.2826805701412,9.131834969477671
Frestedt,54.024640000000005,9.17753
Friedrichsgabekoog,54.16263000000001,8.93788
Friedrichskoog,54.012130000000006,8.90226
Gaushorn,54.1947086510896,9.2232829346712
Glüsing,54.2737118317976,9.219364227300321
Großenrade,54.02169,9.22311
Groven,54.3002302605276,8.98868155820352
Gudendorf,54.0254003841051,9.10774269545628
Hägen,54.255759999999995,9.150780000000001
Hedwigenkoog,54.17816,8.841330000000001
Heide / Holstein,54.195730000000005,9.09109
Hellschen-Heringsand-Unterschaar,54.205380000000005,8.84581
Helse,53.9721663762121,9.01170994930538
Hemme,54.277969999999996,9.0086
Hemmingstedt,54.14771,9.072519999999999
Hennstedt / Dithmarschen,54.283126048600394,9.162131190853131
Hillgroven,54.21881,8.87466
Hochdonn,54.02627,9.275910000000001
Hövede,54.245057250074396,9.29315716171805
Hollingstedt bei Delve,54.2904634059054,9.22706551993433
Immenstedt bei Albersdorf,54.176535910852,9.29970510447578
Kaiser-Wilhelm-Koog,53.94287551895471,8.926465994050831
Karolinenkoog,54.30072,8.9678
Kleve,54.295526266465394,9.123377964453711
Krempel,54.3189,9.02875
Kronprinzenkoog,53.9714911507279,8.96161969595227
Krumstedt,54.069430000000004,9.17705
Kuden,53.968000470686796,9.19292736642632
Lehe,54.343790000000006,9.02545
Lieth,54.1545,9.06058
Linden,54.252359999999996,9.18142
Lohe-Rickelshof,54.1871,9.064630000000001
Lunden,54.3329120891624,9.0237369667053
Marne,53.95112749061689,9.00880578749451
Marnerdeich,53.9476074804811,8.99369891577038
Meldorf (Holstein),54.09195,9.06927
Neuenkirchen,54.23605,8.99007
Neufeld,53.907430711702204,9.01639107458863
Neufelderkoog,53.906748117309,8.96890994005474
Nindorf bei Meldorf,54.087709999999994,9.10317
Norddeich,54.21813,8.90007
Norderheistedt,54.24454,9.146410000000001
Norderwöhrden,54.19859,9.03232
Nordhastedt,54.172709999999995,9.1822
Odderade,54.13983,9.1905
Oesterdeichstrich,54.15919,8.89858
Offenbüttel,54.168904071094396,9.356921987181462
Osterrade,54.187327355604104,9.35273103559569
Ostrohe,54.214810444152,9.137088806872999
Pahlen,54.267722329200794,9.289903642182981
Quickborn,54.0116409355575,9.21656902723583
Ramhusen,53.949558518314,9.08320154838833
Rehm-Flehde-Bargen,54.30274,9.03695
Reinsbüttel,54.17742,8.915339999999999
Sankt Annen,54.3500100864308,9.083306146717051
Sankt Michaelisdonn,53.9876896001851,9.117055720022051
Sarzbüttel,54.1175713056604,9.184230241608551
Schafstedt,54.0798540473944,9.2937088343792
Schalkholz,54.2462679464539,9.25704658175055
Schlichting,54.3168789312225,9.09705683732573
Schmedeswurth,53.9262482259261,9.04012996547493
Schrum,54.185915602344,9.2518283441122
Schülp,54.24205,8.92995
Stelle-Wittenwurth,54.25338000000001,9.06222
Strübbel,54.26368000000001,8.968160000000001
Süderdeich,54.20061,8.90874
Süderhastedt,54.050369999999994,9.20955
Süderheistedt,54.236259999999994,9.14855
Wöhrden,54.166219999999996,8.9963
Tellingstedt,54.219978052745894,9.282764272337712
Tielenhemme,54.2687005383462,9.365975113158859
Trennewurth,54.00025426069261,9.03024870746407
Volsemenhusen,53.9693549681431,9.07000172727379
Wallen,54.286615332734,9.26941821034433
Warwerort,54.13887,8.92057
Weddingstedt,54.24119,9.08817
Welmbüttel,54.197477375836,9.245936201458731
Wennbüttel,54.138877232781,9.323496968990131
Wesselburen,54.2119,8.92084
Wesselburener Deichhausen,54.175619999999995,8.93801
Wesselburenerkoog,54.239740000000005,8.87695
Wesseln,54.20766999999999,9.075660000000001
Westerborstel,54.220193682448595,9.2604295178707
Westerdeichstrich,54.161319999999996,8.86023
Wiemerstedt,54.26781999999999,9.11235
Windbergen,54.0453,9.11905
Wolmersdorf,54.07715,9.10363
Wrohm,54.2127447881436,9.37984816873626
Nordermeldorf,54.13136,8.99435
Tensbüttel-Röst,54.108979434948594,9.24357700678635
Süderdorf,54.2193617376415,9.34410840416507
Oesterwurth,54.21255,8.98353
Herzogtum Lauenburg,53.60132651515152,10.586605303030305
Albsfelde,53.680569999999996,10.69432
Alt Mölln,53.62249,10.65775
Aumühle bei Hamburg,53.528180000000006,10.31357
Bäk bei Ratzeburg,53.71405,10.78621
Bälau,53.616719999999994,10.62172
Basedow,53.4174161542424,10.5836433227539
Basthorst,53.578030000000005,10.47128
Behlendorf,53.69922,10.66799
Berkenthin,53.73066,10.64776
Besenthal,53.53021,10.74237
Bliestorf,53.768809999999995,10.60245
Börnsen,53.46926,10.28125
Borstorf,53.61371,10.56475
Breitenfelde,53.60683,10.63049
Bröthen,53.48024,10.66704
Brunsmark,53.61715,10.74933
Brunstorf,53.49403,10.4219
Buchholz bei Ratzeburg,53.73093000000001,10.7453
Buchhorst,53.38633000000001,10.564689999999999
Büchen,53.48324,10.6135400000001
Dahmker,53.587819999999994,10.44471
Dalldorf,53.43459,10.61192
Dassendorf,53.49119,10.37336
Düchelsdorf,53.73666,10.58349
Duvensee,53.69265,10.56852
Einhaus bei Ratzeburg,53.71399,10.73405
Elmenhorst,53.54535,10.53587
Escheburg,53.46655,10.309239999999999
Fitzen,53.494519999999994,10.64661
Fredeburg bei Ratzeburg,53.67272,10.72476
Fuhlenhagen,53.5747021129107,10.5261449996948
Geesthacht,53.43018000000001,10.3741
Giesensdorf bei Ratzeburg,53.68851,10.71397
Göldenitz bei Berkenthin,53.722069999999995,10.631910000000001
Göttin,53.53398000000001,10.702919999999999
Grabau bei Schwarzenbek,53.51368000000001,10.51962
Grambek,53.57143000000001,10.68256
Grinau,53.77624,10.5483
Groß Boden,53.752790000000005,10.452869999999999
Groß Disnack,53.74321,10.69239
Groß Grönau,53.7953,10.755939999999999
Groß Pampau,53.522240000000004,10.561639999999999
Groß Sarau,53.769330000000004,10.73518
Groß Schenkenberg,53.79517,10.56518
Grove,53.5287,10.49472
Gudow,53.55562,10.77045
Gülzow,53.44164,10.490789999999999
Güster,53.53825,10.6808
Hamfelde (Herzogtum Lauenburg),53.596090000000004,10.44776
Hamwarde,53.452980000000004,10.42135
Harmsdorf bei Ratzeburg,53.700140000000005,10.7261
Havekost bei Schwarzenbek,53.53996,10.47288
Hohenhorn,53.47574,10.3663
Hollenbek,53.59185,10.8196399999999
Hornbek,53.56041,10.64644
Horst,53.63351,10.76604
Juliusburg,53.4164966852724,10.5067940810394
Kankelau,53.54939,10.56789
Kasseburg bei Trittau,53.56703,10.41496
Kastorf,53.74952,10.571069999999999
Kittlitz bei Ratzeburg,53.66417,10.91819
Klein Pampau,53.51095,10.57483
Klein Zecher,53.57694,10.87314
Klempau,53.7644935161454,10.6637504928589
Klinkrade,53.71621999999999,10.55107
Koberg,53.63899,10.52462
Köthel (Herzogtum Lauenburg),53.609719999999996,10.50814
Kollow,53.46375,10.46009
Kröppelshagen-Fahrendorf,53.48588,10.3156
Krüzen,53.402719999999995,10.5268
Krukow,53.41916,10.48076
Krummesse,53.78038000000001,10.64071
Kuddewörde,53.58706,10.40043
Kühsen,53.68184,10.61373
Kulpin bei Ratzeburg,53.710269999999994,10.69562
Labenz,53.70939,10.52624
Langenlehsten,53.50169,10.74112
Lankau,53.669180000000004,10.66792
Lanze,53.3872275808749,10.6048541474628
Lauenburg / Elbe,53.37582,10.54703
Lehmrade,53.59474,10.75208
Linau,53.64476,10.47187
Lüchow bei Sandesneben,53.6908,10.529539999999999
Lütau,53.435269999999996,10.548960000000001
Mechow bei Ratzeburg,53.71745,10.8024
Möhnsen,53.560190000000006,10.46574
Mölln,53.63001,10.692689999999999
Mühlenrade,53.596090000000004,10.4883
Müssen,53.492430000000006,10.5644
Mustin bei Ratzeburg,53.68561999999999,10.88557
Niendorf bei Berkenthin,53.70231,10.62614
Niendorf / Stecknitz,53.58849,10.61105
Nusse,53.65911,10.577810000000001
Panten,53.66324,10.61828
Pogeez,53.750319999999995,10.72873
Poggensee bei Nusse,53.6428,10.57935
Ratzeburg,53.69955,10.7596
Ritzerau,53.66339,10.56713
Römnitz,53.71079,10.76928
Rondeshagen,53.75363,10.62894
Roseburg,53.5325,10.62703
Sahms,53.52475,10.53289
Salem bei Ratzeburg,53.65699,10.82756
Sandesneben,53.68798,10.49639
Schiphorst,53.70783,10.46135
Schmilau,53.6623048649761,10.7579422973871
Schnakenbek,53.38511,10.500210000000001
Schönberg (Kreis Herzogtum Lauenburg),53.68176,10.42929
Schretstaken,53.584430000000005,10.54867
Schürensöhlen,53.76347,10.471860000000001
Schulendorf,53.473980000000005,10.55952
Schwarzenbek,53.50176999999999,10.47992
Seedorf,53.61925,10.8665
Siebenbäumen,53.74981999999999,10.52843
Siebeneichen,53.511390000000006,10.61771
Sierksrade,53.73515,10.60045
Sirksfelde,53.66528,10.50928
Steinhorst,53.720580000000005,10.48532
Sterley,53.62066,10.81868
Stubben bei Bad Oldesloe,53.7336,10.429739999999999
Talkau,53.57464,10.57174
Tramm,53.563559999999995,10.61571
Walksfelde,53.63081,10.5758
Wangelau,53.454609999999995,10.550310000000001
Wentorf bei Hamburg,53.4910507255367,10.2520558834076
Wentorf (Amt Sandesneben),53.68311,10.46705
Wiershop,53.442401000000004,10.451459
Witzeeze,53.45312,10.60708
Wohltorf,53.51973,10.2784
Woltersdorf,53.578109999999995,10.63904
Worth bei Geesthacht,53.46975,10.41124
Ziethen bei Ratzeburg,53.691159999999996,10.80862
Nordfriesland,54.635422999999996,8.724075
Achtrup,54.789255246,9.026371109480001
Ahrenshöft,54.5601031015988,9.06629189992491
Ahrenviöl,54.531212102859605,9.20695471762847
Ahrenviölfeld,54.5336026278284,9.276258975259768
Alkersum,54.7088051645502,8.50931243002416
Almdorf,54.5823747614052,9.01391118764879
Arlewatt,54.53764418889771,9.082039149051349
Aventoft,54.89982060035089,8.810946622493631
Bargum,54.703018106222295,8.94391626119615
Behrendorf bei Husum,54.5650983219065,9.222938418388381
Bohmstedt,54.581209702710105,9.04379300773145
Bondelum,54.556519572290604,9.26667653024198
Bordelum,54.63285150705671,8.93233393473619
Borgsum,54.7023309736,8.45862859543
Bosbüll,54.8241884491,8.8613271188
Braderup bei Niebüll,54.8356161959,8.8904983834
Bramstedtlund,54.840158071757095,9.087009376287439
Bredstedt,54.617217071618605,8.97173076868058
Breklum,54.6034115885696,8.983416482806222
Dagebüll,54.7285687938,8.70576178431
Drage,54.35561,9.15708
Drelsdorf,54.6050071281228,9.036927223205579
Dunsum,54.731491685200005,8.4253262883
Elisabeth-Sophien-Koog,54.5100442584,8.87977814079
Ellhöft,54.88877628109999,8.95747905374
Fresendelf,54.39329185864371,9.24855873132292
Friedrichstadt an der Eider,54.3750907340393,9.0913538370846
Friedrich-Wilhelm-Lübke-Koog,54.8628104654,8.62504290342
Garding,54.3186023078094,8.779349896740941
Garding,54.3284176784701,8.78681403739442
Goldebek,54.681111692518705,9.149629622697839
Goldelund,54.6786220371778,9.10900153219701
Gröde,54.6331128925,8.72548138499
Grothusenkoog,54.3010757049099,8.75887860698703
Haselund,54.591722782024796,9.18273277580739
Hattstedt,54.5312215281043,9.021761195307409
Hattstedtermarsch,54.543625594686496,8.97970174593919
Högel,54.6420466057864,9.058582708239571
Hörnum (Sylt),54.7573271288,8.28744331058
Holm bei Süderlügum,54.831210419399994,8.86064539706
Hooge,54.56596999999999,8.550049000000001
Horstedt bei Husum,54.525602622014,9.068980143910089
Hude bei Husum,54.3879015358767,9.213594125157039
Humptrup,54.86316062979999,8.86437823773
Husum,54.485281036494705,9.05329324448649
Immenstedt,54.5382930036847,9.14935964345168
Joldelund,54.6533733820092,9.136038869619382
Kampen (Sylt),54.956531000000005,8.345022
Karlum,54.8285962451,8.97507379805
Katharinenheerd,54.335360127762,8.8292713944434
Klanxbüll,54.862188089300005,8.67932727337
Klixbüll,54.7936302392,8.91007589101
Koldenbüttel,54.3876945920903,9.06775169218127
Kolkerheide,54.62027888543779,9.13054101169111
Kotzenbüll,54.333408154791606,8.903345290255482
Ladelund,54.8408835926,9.02341043353
Langeneß,54.639533820173504,8.60183322617717
Langenhorn bei Husum,54.6675705675993,8.916203683614711
Leck,54.7718980373985,8.97466555293232
Lexgaard,54.8324648731,8.93914292609
List,55.0186629678,8.43158119972
Löwenstedt,54.621353532897395,9.17072854936124
Lütjenholm,54.6841190793887,9.02116857469083
Midlum,54.7153416493,8.52213570531
Mildstedt,54.4606076571678,9.09520678365771
Nebel,54.6504285943,8.35379624422
Neukirchen bei Niebüll,54.8663281105,8.73749847567
Nieblum,54.692166586000006,8.49089288767
Niebüll (Schleswig),54.7881584621,8.82960150992
Norddorf,54.6795087518,8.33279454763
Norderfriedrichskoog,54.40178312816871,8.90677802408279
Nordstrand,54.49212772905021,8.86499707741731
Norstedt,54.586175154912794,9.12920191884042
Ockholm,54.6664925729276,8.81678357720376
Oevenum,54.7101223336,8.53081131037
Oldenswort,54.37255005707271,8.940871406030551
Oldersbek,54.4429505269028,9.164604918604528
Olderup,54.5380853498475,9.11192767465655
Oldsum,54.730951949885394,8.445557000133471
Ostenfeld (Husum),54.46339049828529,9.231034518724119
Osterhever,54.3843665024602,8.764372665119058
Augustenkoog,54.3882384446641,8.73860065979947
Oster-Ohrstedt,54.5144870510452,9.226937444453869
Pellworm,54.516231519499996,8.64503389001
Poppenbüll,54.36090446984,8.76124655051221
Ramstedt,54.401993123503296,9.17002298081461
Rantrum bei Husum,54.44043146905889,9.129364044910108
Rantum (Sylt),54.8484877909,8.29269513543
Reußenköge,54.6030566757119,8.90520271999829
Risum-Lindholm,54.7548298165302,8.85923295771524
Rodenäs,54.8882625475,8.70087077618
Sankt Peter-Ording,54.3070963528309,8.63601868195536
Schobüll bei Husum,54.51276495667479,8.99891615057532
Schwabstedt,54.394941688419294,9.18558851028029
Schwesing,54.4948242333665,9.135028870349561
Seeth bei Husum,54.36643,9.16668
Simonsberg bei Husum,54.4335176919981,8.977058158760698
Sönnebüll,54.631051252738,8.9958766847849
Sollwitt,54.592296229454796,9.23056326806547
Sprakebüll,54.775692703999994,9.07702194452
Stadum,54.7360393374135,9.050296771097269
Stedesand,54.7388438555245,8.9291484659496
Struckum,54.59358296015721,8.99120628833772
Süderende auf Föhr,54.7257981482,8.440443218310001
Süderhöft,54.3820098677672,9.24237355733458
Süderlügum,54.872320646700004,8.908027166130001
Südermarsch bei Husum,54.430976991357795,9.07681420589033
Sylt-Ost,54.8613563404,8.41161349471
Tating,54.3246378596377,8.70513809068192
Tetenbüll,54.352081941006006,8.828052330446141
Tinningstedt,54.8116271137369,8.93166266636857
Tönning (Nordseebad),54.3180909829608,8.93713844163407
Tümlauer Koog,54.338807457354605,8.6495271806239
Uelvesbüll,54.415457902615,8.92619744086806
Uphusum bei Süderlügum,54.8389106196,8.85887490921
Utersum,54.7147402425,8.40652400311
Viöl,54.5688544559706,9.182817265391359
Vollerwiek,54.2912712920569,8.797920170855551
Vollstedt,54.622626145887395,9.02867540717126
Welt,54.3018973944765,8.7953083698273
Wenningstedt (Sylt),54.937194999999996,8.324050999999999
Westerhever,54.3818446236251,8.68027602477063
Westerland,54.907748,8.308755
Wester-Ohrstedt,54.5077064685643,9.182733969336189
Westre,54.856226528,8.987715595960001
Winnert bei Husum,54.433335940015205,9.19910416150633
Wisch,54.408440784057895,9.15410809362475
Witsum,54.698129125467396,8.44161884674735
Wittbek bei Husum,54.4730463467327,9.20209147179667
Wittdün,54.627099476000005,8.38922956641
Witzwort,54.400063385980395,8.984527039956982
Wobbenbüll,54.5232092065271,8.993515253059382
Wrixum,54.699762274099996,8.54672753866
Wyk auf Föhr,54.6875716901,8.55363690908
Galmsbüll,54.765320475069295,8.70212808251381
Emmelsbüll-Horsbüll,54.811696102089904,8.68802034910201
Enge-Sande,54.7265176859968,8.98085974411973
Ostholstein,54.17666285714285,10.84762
Ahrensbök,54.0102,10.5717
Altenkrempe,54.132819999999995,10.82612
Bad Schwartau,53.92105,10.67955
Beschendorf,54.18196999999999,10.878730000000001
Bosau,54.1043615627237,10.430157712531098
Dahme,54.22062,11.0848100000001
Damlos,54.242540000000005,10.90765
Eutin,54.13765,10.61616
Göhl,54.28521,10.94075
Gremersdorf,54.33308,10.93062
Grömitz,54.15113,10.956489999999999
Großenbrode,54.36949,11.08533
Grube,54.23522,11.03525
Harmsdorf,54.2418,10.8298
Heiligenhafen,54.37243,10.97918
Heringsdorf,54.300776,11.004684
Kabelhorst,54.216480000000004,10.9231
Kasseedorf,54.165980000000005,10.72303
Kellenhusen (Ostsee),54.193259999999995,11.05901
Lensahn,54.21955,10.883469999999999
Malente,54.173637119805896,10.558924946618099
Manhagen bei Lensahn,54.19505,10.9143
Neukirchen bei Oldenburg in Holstein,54.32357,11.018930000000001
Neustadt in Holstein,54.10685,10.81353
Oldenburg in Holstein,54.2916939035514,10.8867433692694
Ratekau,53.94908,10.73622
Riepsdorf,54.225680000000004,10.96994
Schashagen,54.1343,10.88321
Schönwalde am Bungsberg,54.18761,10.75563
Sierksdorf,54.06665,10.768880000000001
Stockelsdorf,53.88788,10.64507
Süsel,54.07735,10.71555
Timmendorfer Strand,53.997530000000005,10.780619999999999
Wangels,54.272690000000004,10.766055999999999
Scharbeutz,54.0352,10.7512
Fehmarn,54.43555,11.19698
Pinneberg,53.727893877551026,9.697959795918369
Appen,53.65964,9.74216
Barmstedt,53.789368210789696,9.77226791126724
Bevern,53.755650936352794,9.77098447425361
Bilsen,53.76965,9.87624
Bönningstedt,53.66529,9.91382
Bokel bei Elmshorn,53.866715450148895,9.73416726346494
Bokholt-Hanredder,53.788069668807495,9.73618281228538
Borstel-Hohenraden,53.68402,9.8061
Brande-Hörnerkirchen,53.855125414160604,9.705130339221961
Bullenkuhlen,53.7663981319767,9.748536396455721
Ellerbek,53.6572,9.86975
Ellerhoop,53.727510167350104,9.770745087099039
Elmshorn,53.75529730085611,9.65623957259651
Groß Nordende,53.70191074206161,9.64959082348352
Groß Offenseth-Aspern,53.8180035553392,9.73184702141281
Halstenbek,53.63411,9.8376
Haselau,53.6617753339703,9.620067972373919
Haseldorf,53.6343,9.596260000000001
Hasloh,53.69353,9.91165
Heede bei Barmstedt,53.783780787891,9.80737869782444
Heidgraben,53.70966816923929,9.678142938447051
Heist,53.654933178738396,9.65669800682073
Helgoland,54.1828640617142,7.885599148826599
Hemdingen,53.762924383598296,9.837159264516789
Hetlingen,53.60709,9.63723
Holm,53.62151,9.6715
Klein Nordende,53.71136,9.64729
Klein Offenseth-Sparrieshoop,53.804787601266604,9.69322656435962
Kölln-Reisiek,53.7574101331,9.69775400118
Kummerfeld bei Pinneberg,53.693259999999995,9.79226
Seester,53.717382897957705,9.597240585517868
Langeln,53.7949216188937,9.852632257771448
Lutzhorn,53.832995330501795,9.76821576399799
Moorrege bei Uetersen,53.66774025294029,9.65997231347566
Neuendeich bei Uetersen,53.674534781917494,9.588158849310929
Osterhorn,53.866845932481205,9.70164480860711
Pinneberg,53.662819999999996,9.79665
Prisdorf,53.68212,9.769969999999999
Quickborn,53.73186,9.903960000000001
Raa-Besenbek,53.755608119657204,9.61138901455398
Rellingen,53.65161,9.829419999999999
Schenefeld bei Hamburg,53.60085,9.822569999999999
Seestermühe,53.7040542593132,9.567326578927029
Seeth-Ekholt,53.7412596906038,9.73015052421089
Tangstedt,53.6777,9.85641
Tornesch,53.6973296003241,9.71218419415956
Uetersen,53.6934006954926,9.654208916854909
Wedel,53.58367,9.69817
Westerhorn,53.8524564197053,9.67877294178487
Plön,54.159130876399495,10.411255633831098
Ascheberg (Holstein),54.150896960812204,10.3449319704826
Barmissen,54.20503982768889,10.1753696967095
Barsbek,54.4050867592085,10.323009064793698
Behrensdorf (Ostsee),54.3503189074916,10.604865527152999
Belau bei Wankendorf,54.098652603397596,10.2605556015491
Bendfeld,54.3669488826277,10.4205361962319
Blekendorf,54.28224,10.65836
Bönebüttel,54.07957,10.0593
Bösdorf bei Plön,54.1401533602515,10.4899364556551
Boksee,54.2431576781301,10.1300171032006
Bothkamp,54.20354689489079,10.1342241480405
Brodersdorf,54.3862106596134,10.248747295141301
Dannau,54.2409577037115,10.541095337271699
Dersau,54.117648755843106,10.3363038663387
Dobersdorf,54.3183126508236,10.2812731027603
Dörnick,54.16313539520821,10.3619337145805
Fahren,54.3502641931476,10.337811386585301
Fiefbergen,54.3793174147247,10.3430597990752
Giekau,54.3180060109664,10.5051403254271
Grebin,54.1980695425125,10.4937161266804
Großbarkau,54.2250887703464,10.1675591040581
Großharrie,54.11898000000001,10.04895
Heikendorf,54.3723325826753,10.2087811589242
Helmstorf bei Lütjenburg,54.2886150877064,10.5964923411608
Högsdorf,54.2519,10.61575
Höhndorf,54.3713472684405,10.370736843347599
Hohenfelde bei Kiel,54.3702654378341,10.4959210217
Hohwacht (Ostsee),54.3204513980808,10.670928138065301
Honigsee,54.2283689504467,10.1880377698869
Kalübbe,54.11826,10.281260000000001
Kirchbarkau,54.2119111247408,10.141199232583698
Kirchnüchel,54.20375,10.680530000000001
Klamp,54.29636,10.53426
Klausdorf / Kiel,54.3082189315693,10.2147724241018
Klein Barkau,54.2211518488187,10.1346003278548
Kletkamp,54.24958,10.63857
Köhn,54.3455383535706,10.4551380336286
Krokau,54.4026005017548,10.3416403591634
Krummbek,54.3785490147719,10.3993004769088
Kühren bei Preetz,54.20187118074511,10.2604960411788
Laboe,54.404258999999996,10.221474
Lammershagen,54.2746130033627,10.4440013825894
Lebrade,54.216738,10.421914
Lehmkuhlen bei Preetz,54.22348156001161,10.3644041373785
Löptin,54.17552,10.2157999999999
Lütjenburg,54.292049115078704,10.5901992082596
Lutterbek,54.391264657795496,10.2765577793122
Martensrade,54.2796290587768,10.3929817438126
Mönkeberg,54.348735479969996,10.1910175591708
Mucheln,54.246461343322295,10.4427394032479
Nehmten,54.094751815682706,10.3933839563846
Nettelsee,54.17578,10.19231
Panker,54.330405302489005,10.573104938864802
Passade,54.3648289245623,10.316658815741599
Plön / Holstein,54.1600017261745,10.4108647018672
Pohnsdorf bei Preetz,54.2396253724473,10.249255573749599
Postfeld,54.2104961349701,10.2126353740693
Prasdorf,54.380256263734296,10.2959488093854
Preetz,54.232843923379605,10.270543596148501
Probsteierhagen,54.362274,10.286562
Raisdorf,54.279812274967206,10.2436296403409
Rantzau,54.237158878626005,10.5153025448323
Rastorf,54.2724031142712,10.2888664364815
Rathjensdorf,54.18495669307671,10.4313694800615
Rendswühren,54.065709999999996,10.1655900000001
Ruhwinkel,54.093284206632205,10.2197343919992
Schellhorn bei Preetz,54.23062865938971,10.2925786137581
Schillsdorf,54.116780000000006,10.12358
Schlesen,54.3216456473495,10.3341166436672
Schönberg (Holstein),54.392807787445896,10.3751887589694
Schönkirchen,54.33914941795901,10.2225421130657
Schwartbuck,54.357317244568605,10.479888787865699
Selent,54.2905415285635,10.427672764658999
Stakendorf,54.3890151470185,10.4210712969304
Stein bei Laboe,54.414707974774196,10.2691422611476
Stolpe bei Neumünster,54.1265922758671,10.223930708003
Stoltenberg,54.34638319700971,10.3544162720442
Tröndel,54.336830000000006,10.51131
Tasdorf,54.09539309139979,10.0294631000042
Wahlstorf bei Preetz,54.195519754283,10.3087221592665
Wankendorf,54.11254,10.203669999999999
Warnau bei Nettelsee,54.18780388864389,10.161353813502199
Wendtorf,54.4108728715248,10.2955345273019
Wisch bei Kiel,54.408992650187905,10.345203673839698
Wittmoldt,54.17481186428039,10.3500159893751
Fargau-Pratjau,54.318364278738,10.377427613735199
Rendsburg-Eckernförde,54.279116265060246,9.788656024096383
Achterwehr,54.3134100505356,9.9659076839686
Ahlefeld bei Rendsburg,54.4035,9.679310000000001
Alt Duvenstedt,54.360209999999995,9.645589999999999
Altenhof bei Eckernförde,54.435390000000005,9.87378
Altenholz,54.40164577006821,10.1185690820218
Arpsdorf,54.03945764666471,9.85890795631409
Ascheffel,54.4308049913838,9.698235570403089
Aukrug,54.077083551911294,9.786281243519788
Bargstall,54.2591806138299,9.4601233317906
Bargstedt,54.1628386745617,9.769748102381689
Barkelsby,54.5012194223,9.83571292758
Beldorf,54.1314592535068,9.351818413978382
Bendorf,54.087289598028406,9.382885637879381
Beringstedt,54.1107011285131,9.53487465853978
Bissee,54.1906725239814,10.1104041203314
Bistensee,54.39836,9.70171
Blumenthal,54.2260684158409,10.002985870838199
Böhnhusen,54.2239373716,10.0552116111
Bokel bei Rendsburg,54.217561580682705,9.79124350393373
Bordesholm,54.1734274524028,10.0354430838879
Borgdorf-Seedorf,54.1774425005624,9.87857140744285
Borgstedt bei Rendsburg,54.333289223207906,9.70985911930148
Bornholt,54.1002834373528,9.3347728431225
Bovenau,54.3295480172577,9.828958114981711
Brammer bei Rendsburg,54.1997352124029,9.764275105243481
Bredenbek bei Rendsburg,54.324768766539,9.868697053194099
Breiholz,54.206013994645794,9.523502309674448
Brekendorf,54.4216120082,9.62902384853
Brinjahe,54.1683989678683,9.632070431666369
Brodersby bei Kappeln,54.6346665037,9.97967110872
Brügge,54.174187319375,10.0715697571094
Büdelsdorf,54.314080000000004,9.66324
Bünsdorf,54.36693,9.736369999999999
Christiansholm,54.320434189657604,9.406801687126789
Dänischenhagen,54.424552417292794,10.1276704877616
Dätgen,54.181080433404,9.93373371804313
Damendorf,54.4235236586372,9.73521049222564
Damp,54.5822542146,10.0198961973
Dörphof,54.616464076999996,9.96736781597
Eckernförde,54.470780266800006,9.834613221880002
Ehndorf,54.05245,9.894630000000001
Eisendorf,54.1934415191013,9.86923128510074
Ellerdorf,54.193077456658706,9.84013468170718
Elsdorf-Westermühlen,54.258090363738496,9.522776321129811
Embühren,54.1712934904089,9.5943076109457
Emkendorf bei Rendsburg,54.26061947657411,9.851865521073401
Felde,54.2972792118201,9.927402363663349
Felm,54.409974528290995,10.057776144147
Fleckeby,54.482358286172,9.694066747041688
Flintbek,54.24531491023439,10.072269341349699
Fockbek,54.304827096840896,9.601419420486131
Friedrichsgraben,54.27152930396979,9.419327603226339
Friedrichsholm,54.3039381695245,9.42753583336417
Gammelby bei Eckernförde,54.5002086912298,9.79586261412715
Gettorf,54.406917204077395,9.97400405108938
Gnutz,54.135276445512105,9.8224971457775
Gokels,54.112543667420205,9.46827242076398
Grauel,54.0714455962366,9.67370759006024
Grevenkrug,54.2133186047,10.0107620434
Groß Buchwald,54.162083522502,10.08378654862
Groß Vollstedt,54.234156474083,9.86765896821577
Groß Wittensee,54.404633999999994,9.769846000000001
Güby,54.485906532865705,9.666884496800382
Haale,54.1741974918379,9.548382157640448
Haby,54.395807605948896,9.82008951008325
Hamdorf bei Rendsburg,54.2223398014835,9.5187770754099
Hamweddel,54.1904975107403,9.618502477364538
Hanerau-Hademarschen,54.1276326183113,9.41093886196615
Haßmoor,54.29201467446529,9.819137877225929
Heinkenborstel,54.131646058823996,9.750884349897401
Hörsten bei Rendsburg,54.2270015132436,9.578479827886381
Hoffeld bei Bordesholm,54.18606941437861,9.993986861353552
Hohenwestedt,54.0911316781334,9.6489895487261
Hohn bei Rendsburg,54.2986464637591,9.50098477447573
Holtsee,54.399064838759,9.854920005798391
Holzbunge,54.38121999999999,9.70925
Holzdorf bei Eckernförde,54.554589828400005,9.89657895565
Hütten bei Ascheffel,54.43699930788421,9.71956114372825
Hummelfeld,54.462603,9.718161
Jahrsdorf,54.0656195601616,9.63239754791738
Jevenstedt,54.232303990945795,9.664026872759619
Karby,54.623173021899994,9.974792170519999
Klein Wittensee,54.390983999999996,9.734832
Königshügel,54.335217396185506,9.4691071212215
Kosel bei Eckernförde,54.506653,9.754782
Krogaspe,54.1317064580141,9.92878700848104
Kronshagen,54.3314414549232,10.0852312356234
Krummwisch,54.3351704141464,9.89756902158266
Langwedel,54.211774104327205,9.930904786234679
Lindau bei Kiel,54.385024,9.904678
Lohe-Föhrden,54.334179080473604,9.544460700398119
Loop,54.147916938868505,9.949261824732599
Loose bei Eckernförde,54.5196078794,9.88896148204
Lütjenwestedt,54.140728347533795,9.489010442847439
Luhnstedt,54.1673276012344,9.69853818560199
Goosefeld,54.43225,9.81165
Meezen,54.0528439633348,9.705650017218598
Melsdorf,54.3173160629321,10.0300869107247
Mielkendorf,54.2846664242755,10.040668225288401
Mörel bei Hohenwestedt,54.1124888716996,9.72631263311197
Molfsee,54.264562612084504,10.0659111648799
Mühbrook,54.157039032308,10.010167287236
Negenharrie,54.163430000000005,10.054210000000001
Neudorf-Bornstein,54.43212242680001,9.944119769330001
Neu Duvenstedt,54.35545,9.69672
Neuwittenbek,54.36841,10.02097
Nienborstel,54.14216247560929,9.61841406996538
Nindorf bei Neumünster,54.13109757623779,9.701474707081811
Noer,54.46138034609999,10.0052580416
Nortorf bei Neumünster,54.168813001762,9.85476680243567
Nübbel bei Rendsburg,54.272038,9.620339
Oldenbüttel bei Hanerau-Hademarschen,54.1700278433076,9.451833161711711
Oldenhütten,54.1578673083651,9.737510632231698
Osdorf bei Kiel,54.427853538,10.015675741399999
Ostenfeld (Rendsburg),54.316529101277,9.78185584247118
Osterby bei Eckernförde,54.4543533813167,9.7543031265459
Osterrönfeld,54.2904264612821,9.69555040299898
Osterstedt,54.11061,9.57374000000004
Ottendorf bei Kiel,54.340248087518795,10.044416061043801
Owschlag,54.392016679997795,9.6017544269485
Padenstedt,54.049530000000004,9.91733
Prinzenmoor,54.2226455089987,9.455396608954231
Quarnbek,54.330030525697296,9.984011253714618
Rade bei Hohenwestedt,54.10245874560229,9.71676598067571
Rade bei Rendsburg,54.3313624363921,9.74501885617319
Reesdorf bei Kiel,54.190785515794296,10.0600516810471
Remmels,54.1171056723625,9.65157623167325
Rendsburg,54.30380300303229,9.669857934670462
Rickert,54.33033019203239,9.66223783934656
Rieseby,54.541648413500006,9.812959013939999
Rodenbek bei Kiel,54.2761634572153,10.0178687781096
Rumohr,54.2552618791485,10.0246098399163
Schacht-Audorf,54.3125834773629,9.71555070634366
Schierensee,54.25656158546229,9.98529603183275
Schinkel bei Gettorf,54.3558284603593,9.95605202615266
Schmalstede,54.195792940004104,10.0272274776751
Schönbek,54.1618393217758,9.9789081528242
Schönhorst,54.2254656743553,10.104107634668999
Schülldorf,54.300466632786296,9.7291785985232
Schülp bei Nortorf,54.163807805587,9.88635853076533
Schülp bei Rendsburg,54.259575428126496,9.62945722187118
Schwedeneck,54.459428242654496,10.046345239877802
Seefeld bei Hanerau-Hademarschen,54.101682385978606,9.49296550750734
Sehestedt,54.366780000000006,9.81944
Sören,54.2019262471777,9.99519452596251
Sophienhamm,54.276286549168994,9.46341574335638
Stafstedt bei Rendsburg,54.170530511948606,9.661927993848789
Steenfeld,54.1426838675212,9.379862788319599
Strande,54.4408932151081,10.1709284842015
Tackesdorf,54.16457839498221,9.471356290578859
Tappendorf,54.1046109023127,9.691057677820222
Techelsdorf,54.2143098691,10.0469396785
Thaden,54.103564090113295,9.42251460552217
Thumby,54.585826501599996,9.910039621589998
Timmaspe,54.140793854176394,9.891024858312619
Todenbüttel,54.1295141652807,9.55810862357904
Tüttendorf,54.3922268498189,9.99286400377759
Waabs,54.5357955911,9.98806374073
Wapelfeld,54.0847725482883,9.608448322370538
Warder bei Neumünster,54.21272,9.88471
Wasbek,54.07225,9.89598
Wattenbek,54.1633304156415,10.0542400046642
Westensee,54.277962850213896,9.899830123782221
Westerrönfeld,54.280545285986996,9.643244446759981
Windeby,54.462724215,9.81717886329
Winnemark,54.61787016101089,9.92786236362456
Schleswig-Flensburg,54.631097014925366,9.555970074626863
Alt Bennebek,54.37778,9.43111
Arnis,54.630359999999996,9.93159
Bergenhusen,54.3753533896918,9.31911625111643
Böel,54.6485531792,9.72130524969
Böklund,54.607252671111205,9.58450581132602
Börm bei Schleswig,54.39901999999999,9.38119
Bollingstedt,54.59279,9.410812
Boren,54.61354,9.81795
Borgwedel,54.49995,9.66568
Brebel,54.6395977582,9.74003243303
Brodersby bei Schleswig,54.537769999999995,9.706439999999999
Busdorf bei Schleswig,54.49299,9.55207
Dannewerk,54.4864355056769,9.50951325892635
Dörpstedt bei Schleswig,54.43387,9.3626
Dollrottfeld,54.64266,9.80914
Ekenis,54.62712,9.852360000000001
Ellingstedt,54.477710085632204,9.4096391946001
Erfde,54.308983,9.317646
Fahrdorf,54.503539,9.601545
Geltorf,54.462867376187106,9.611111983649211
Goltoft,54.5456905535509,9.72218836745833
Grödersby,54.6375739902,9.91713004112
Groß Rheide,54.4426174338499,9.43331572412677
Havetoft,54.6500210379881,9.51074712233555
Havetoftloit,54.662250953699996,9.56053900575
Hollingstedt bei Schleswig,54.45704,9.33549
Hüsby,54.50075,9.48829
Idstedt,54.5821904924005,9.51176698505115
Jagel bei Schleswig,54.457122905526894,9.53752356766887
Jübek,54.5565,9.39044
Kappeln,54.6590711176,9.931329655639999
Kiesby,54.6208391303,9.81813031292
Klappholz,54.621154687235205,9.53958082198333
Klein Bennebek,54.402069999999995,9.45647
Klein Rheide,54.450583876518294,9.476606577627141
Kropp bei Schleswig,54.41115371921679,9.51308327912517
Loit,54.6113867309,9.69996023035
Lottorf,54.451204532693396,9.569154188029241
Lürschau,54.54125,9.49623
Meggerdorf,54.34921538105829,9.398355410938901
Mohrkirch,54.675534304368604,9.714544668786
Neuberend,54.55602,9.52417
Norderbrarup,54.656180000000006,9.768469999999999
Norderstapel,54.3598054275344,9.24487203503195
Nottfeld,54.613295460799996,9.76207153797
Oersberg,54.6746,9.8422
Rabenkirchen-Faulück,54.64931800000001,9.842478999999999
Rüde bei Satrup,54.823755168199995,9.57608716488
Rügge,54.691160184405405,9.763193905345869
Satrup,54.6922598987,9.60367093837
Saustrup,54.674369999999996,9.76949
Schaalby,54.549580000000006,9.63958
Scheggerott,54.66571999999999,9.82115
Schleswig,54.518080000000005,9.57038
Schnarup-Thumby,54.6469102479615,9.64482739822876
Schuby bei Schleswig,54.51814,9.47986
Selk,54.4724945137066,9.56663425265975
Silberstedt,54.5180797040668,9.37611654544417
Steinfeld bei Schleswig,54.6004655471,9.74733608818
Stolk,54.59843340705171,9.54194250702094
Struxdorf,54.629887086489106,9.64269303040516
Süderbrarup,54.6361,9.781460000000001
Süderfahrenstedt,54.5852020944476,9.58766813575458
Süderstapel,54.3498172502046,9.21741090858523
Taarstedt,54.5688113360287,9.690030022474279
Tetenhusen,54.351936141073,9.50052182375617
Tielen bei Erfde,54.2858197465059,9.33203511083666
Tolk,54.57764309174971,9.639203476476789
Treia bei Schleswig,54.5174141334779,9.322491811161669
Uelsby,54.631220758771896,9.59642492489826
Ulsnis,54.5730281235394,9.74562819203948
Wagersrott,54.66365,9.79519
Wohlde bei Schleswig,54.4078686537129,9.29848939323965
Twedt bei Schleswig,54.597305015399996,9.676496265880001
Nübel bei Schleswig,54.5636361570043,9.583857460828769
Tastrup bei Flensburg,54.76509371149999,9.4772163039
Ahneby,54.7078454381146,9.728527024380641
Ausacker,54.7392898633,9.57490558779
Böxlund,54.8369409422,9.17925482393
Dollerup,54.782070073599996,9.67668386102
Eggebek,54.620206671838204,9.37919788062574
Esgrus,54.723920490959905,9.77956476806827
Gelting,54.7462661395,9.89700274467
Glücksburg (Ostsee),54.834154633012,9.54751448929308
Großenwiehe,54.70321,9.24757999999997
Großsolt,54.6998863153,9.51765785968
Grundhof bei Flensburg,54.7732944236,9.65308802128
Handewitt,54.7634057335,9.324908955449999
Harrislee,54.800799,9.386275999999999
Hasselberg,54.714225087399996,9.977914261810001
Hörup,54.741222317100004,9.1034363389
Holt bei Medelby,54.8105287733,9.14853011966
Hürup,54.7472356221,9.52964599287
Husby bei Flensburg,54.7653488281,9.57612426877
Janneby,54.625564883450394,9.30044353008272
Jardelund,54.8250264622,9.201098734139999
Jerrishoe,54.6572493142976,9.37190319596957
Jörl,54.6125690969401,9.27395629882049
Kronsgaard,54.732243159,9.962888526910001
Langballig,54.797014257600004,9.63691100533
Langstedt,54.616769999999995,9.385769999999999
Maasbüll bei Flensburg,54.7755911221,9.52410550714
Maasholm,54.6831927657,9.9929346323
Medelby,54.8134036887,9.17374020219
Meyn,54.7576904174,9.2187015891
Munkbrarup,54.8026425337,9.5637234584
Nieby bei Gelting,54.7716976266,9.93403868675
Niesgrau,54.7427048442,9.81124715805
Nordhackstedt,54.73335360674889,9.16705851597769
Oeversee,54.7048841523,9.435781539039999
Osterby bei Medelby,54.797417487,9.21028440595
Pommerby bei Gelting,54.7565938359,9.93708567619
Quern,54.7502224464,9.71675695777
Rabel,54.690257774799996,9.95020704269
Rabenholz bei Gelting,54.722097515600005,9.90210832953
Ringsberg,54.8067167835,9.59834413528
Schafflund,54.759230784135106,9.18345473762185
Sieverstedt,54.6440025419994,9.478627669382211
Sörup,54.71718943638639,9.6696169972343
Sollerup,54.569340000000004,9.320960000000001
Stangheck,54.7103832676,9.8608908236
Steinberg bei Flensburg,54.764128132299994,9.804091024389999
Steinbergkirche,54.7544705921,9.760456848139999
Sterup,54.727785273973396,9.73927785797112
Stoltebüll,54.702684401999996,9.87843783498
Süderhackstedt,54.59245234176289,9.28966666757297
Tarp,54.6644626885676,9.40599474310111
Wallsbüll bei Flensburg,54.777277315,9.23481093645
Wanderup,54.688010253164606,9.335581439304471
Wees,54.807239,9.522599000000001
Weesby,54.8303564724,9.153277146810002
Westerholz bei Langballig,54.8163807567,9.67204051018
Lindewitt,54.700350149399995,9.20937286615
Jarplund-Weding,54.7433859239,9.385031581469999
Sankelmark,54.7169084165,9.425106347160002
Freienwill bei Flensburg,54.7283936204,9.49240620291
Segeberg,53.92322872340426,10.161231170212766
Alveslohe,53.78799,9.91512
Armstedt,53.9711897939432,9.84708625133515
Bad Bramstedt,53.9208930540248,9.88168272431375
Bad Segeberg,53.938233,10.305231
Bahrenhof,53.8697843894955,10.3640316613769
Bark bei Bad Segeberg,53.91056999999999,10.18447
Bebensee,53.87491,10.29856
Bimöhlen,53.93581,9.955110000000001
Blunk,54.010709999999996,10.31228
Boostedt,54.0144,10.01972
Bornhöved,54.069394048891,10.2264063869238
Borstel bei Neumünster,53.9673377741042,9.79974190946103
Bühnsdorf,53.88782,10.37289
Daldorf,54.016909999999996,10.2488
Damsdorf,54.06488267093,10.3173398818254
Dreggers,53.88508,10.34552
Ellerau,53.75121,9.9205
Fahrenkrug,53.94491,10.252130000000001
Föhrden-Barl,53.9286219026486,9.78696587737084
Fredesdorf,53.87509,10.20358
Fuhlendorf bei Wiemersdorf,53.9436569547884,9.886770874815001
Geschendorf,53.92216,10.4402
Glasau,54.05007954805039,10.516554468231302
Gönnebek,54.04926,10.17811
Großenaspe,53.973627694479596,9.968763245696241
Groß Kummerfeld,54.051809999999996,10.07338
Groß Niendorf,53.84545,10.24446
Groß Rönnau,53.97226,10.311960000000001
Hagen bei Bad Bramstedt,53.946519821756105,9.826584116177571
Hardebek,53.9884126357662,9.869342551188481
Hartenholm,53.90016,10.05905
Hasenkrug bei Brokstedt,53.985068469366105,9.849742979364411
Hasenmoor,53.89977,9.97926
Heidmoor,53.866690000000006,9.81725
Heidmühlen,53.9552,10.07751
Henstedt-Ulzburg,53.790319999999994,9.9803
Hitzhusen,53.9231928262565,9.85223542209149
Högersdorf,53.920680000000004,10.2818600000001
Hüttblek,53.841969999999996,10.07338
Itzstedt,53.807336,10.157515
Kaltenkirchen,53.83914,9.960239999999999
Kattendorf,53.842119999999994,10.02379
Kayhude,53.75761,10.13273
Kisdorf,53.80993,10.008410000000001
Klein Gladebrügge,53.91466,10.31771
Klein Rönnau,53.96213,10.32085
Krems II,53.98661,10.35549
Kükels,53.89611,10.23812
Latendorf,53.99568000000001,10.06245
Leezen,53.86889,10.25097
Lentföhrden,53.8730756931822,9.885652189974518
Mönkloh,53.8893855875667,9.78687602336885
Mözen,53.91121,10.26254
Nahe,53.791180000000004,10.13748
Negernbötel,53.98209,10.24939
Nehms,54.0249764893556,10.3580859895229
Neuengörs,53.90101,10.38417
Neversdorf,53.86453,10.28347
Norderstedt,53.673590000000004,9.9857
Nützen,53.86537,9.91884
Oering,53.82428,10.15135
Oersdorf bei Neumünster,53.84016999999999,9.99358
Pronstorf,53.9573,10.46835
Rickling,54.00911,10.16284
Rohlstorf,53.96856999999999,10.40755
Schackendorf bei Bad Segeberg,53.95759,10.27068
Schieren bei Bad Segeberg,53.943830000000005,10.39153
Schmalensee,54.0806894205797,10.270383215379699
Schmalfeld,53.877109999999995,9.98354
Schwissel,53.895680000000006,10.29341
Seedorf bei Bad Segeberg,54.049826232241,10.4105681989908
Seth,53.84604,10.17496
Sievershütten,53.84112,10.10627
Stipsdorf,53.941790000000005,10.333919999999999
Stocksee,54.088094463081596,10.341717234683
Strukdorf,53.91966,10.48819
Struvenhütten,53.86413,10.05925
Stuvenborn,53.851780000000005,10.12561
Sülfeld,53.80106,10.22878
Tarbek,54.05628000000001,10.26568
Tensfeld,54.0412210764855,10.3180888886929
Todesfelde,53.8951907819038,10.176937630300198
Trappenkamp,54.040859999999995,10.21509
Travenhorst,54.01923000000001,10.45496
Traventhal,53.89801,10.32043
Wahlstedt,53.952909999999996,10.21456
Wakendorf I,53.864340000000006,10.35603
Wakendorf bei Henstedt-Ulzburg,53.785219999999995,10.0842299999999
Weddelbrook,53.9032835947486,9.8273995077181
Weede,53.922019999999996,10.37373
Wensin,53.98113000000001,10.40748
Westerrade,53.934419999999996,10.45598
Wiemersdorf,53.957776789538,9.904593483166712
Winsen bei Neumünster,53.830090000000006,10.01116
Wittenborn,53.9264,10.22408
Steinburg,53.94093421052632,9.515789561403507
Aasbüttel,54.066624,9.440368
Aebtissinwisch,53.970946999999995,9.289992999999999
Agethorst,54.019467000000006,9.435937
Altenmoor,53.7590104019671,9.566185646760001
Auufer,53.923232999999996,9.681892
Bahrenfleth,53.871441000000004,9.439896000000001
Beidenfleth,53.878354,9.414377
Bekdorf bei Wilster,53.93769,9.423966
Bekmünde,53.925025,9.446256
Besdorf,54.050731000000006,9.360748
Blomesche Wildnis,53.805657999999994,9.450797999999999
Bokelrehm,54.038089,9.386109
Bokhorst bei Schenefeld,54.058934482042616,9.395102262496946
Borsfleth,53.826715,9.430798
Breitenberg bei Itzehoe,53.924369999999996,9.637965
Breitenburg,53.905752,9.568923
Brokdorf,53.861885,9.328287
Brokstedt,53.991684,9.817088
Büttel,53.900228000000006,9.226957
Christinenthal,54.0499593741924,9.532244752600679
Dägeling,53.87840500000001,9.531152
Dammfleth,53.908773,9.371519000000001
Drage bei Hohenaspe,54.003443000000004,9.519824
Ecklak,53.953656,9.262411
Elskop,53.808781999999994,9.477172
Engelbrechtsche Wildnis,53.784638,9.462173
Fitzbek,54.002623,9.769674
Glückstadt,53.788403,9.423933
Grevenkop,53.84210699999999,9.529661
Gribbohm,54.028687,9.347382000000001
Hadenfeld,54.033804,9.456263
Heiligenstedten,53.932759999999995,9.47465
Heiligenstedtenerkamp,53.899874,9.468966
Hennstedt bei Itzehoe,54.0289746398718,9.71813771183969
Herzhorn,53.790672,9.489478
Hingstheide,53.907737,9.753026
Hodorf,53.901429,9.429038
Hohenaspe,53.989066,9.52774
Hohenfelde bei Elmshorn,53.84390500000001,9.621519000000001
Hohenlockstedt,53.968265,9.618966
Holstenniendorf,54.04246,9.347339
Horst (Holstein),53.811088,9.618279
Huje,53.977224,9.434510000000001
Itzehoe,53.926752,9.5127
Kaaks,53.990075,9.469738000000001
Kaisborstel,54.013794,9.481067999999999
Kellinghusen,53.951976,9.719642
Kiebitzreihe,53.78266,9.617282000000001
Kleve bei Itzehoe,53.962648,9.408947999999999
Kollmoor bei Itzehoe,53.921262,9.600322
Krempdorf,53.82777900000001,9.466175999999999
Krempe,53.836656000000005,9.489853
Kremperheide,53.88244,9.478867
Krempermoor,53.875926,9.481055
Kronsmoor bei Westermoor,53.9082,9.600128999999999
Krummendiek,53.946616000000006,9.416584
Kudensee,53.93006,9.21226
Lägerdorf,53.886917000000004,9.572172
Landrecht,53.926017,9.398406
Landscheide bei Sankt Margarethen,53.92069300000001,9.252508
Lockstedt,54.004666,9.686634
Lohbarbek,53.945788,9.63598
Looft,54.028517,9.523064
Mehlbek,54.004616000000006,9.434583
Moordiek bei Westermoor,53.91548,9.655944
Moordorf bei Westermoor,53.902269,9.617602
Moorhusen bei Wilster,53.960338,9.387064
Mühlenbarbek,53.957753000000004,9.667185
Münsterdorf,53.901789,9.541524
Neuenbrook,53.85964499999999,9.53322
Neuendorf bei Elmshorn,53.73766,9.562851
Nienbüttel bei Wacken,54.030570999999995,9.415286
Nortorf bei Wilster,53.926588,9.290363000000001
Nutteln,53.989481999999995,9.386505999999999
Oelixdorf,53.927577,9.558216
Oeschebüttel,53.990365000000004,9.72182
Oldenborstel,54.061952000000005,9.5127
Oldendorf,53.95340899999999,9.458583
Ottenbüttel,53.973661,9.506748
Peissen,54.024541000000006,9.60868
Pöschendorf,54.038927,9.490787
Poyenberg,54.041491,9.690783999999999
Puls,54.082796372880104,9.518704290941251
Quarnstedt bei Wrist,53.953826,9.784869
Rade bei Fitzbek,54.00029,9.741717
Reher,54.067166,9.573072999999999
Rethwisch bei Lägerdorf,53.866471999999995,9.591652999999999
Rosdorf,53.978038,9.724715
Sankt Margarethen,53.892185999999995,9.253991000000001
Sarlhusen,54.024289,9.792192
Schenefeld,54.046473,9.481399
Schlotfeld,53.957395999999996,9.582708
Siezbüttel,54.052721,9.447425
Silzen,54.028459999999995,9.635177
Sommerland,53.805873999999996,9.534915
Stördorf,53.910943,9.422129
Störkathen,53.980346999999995,9.756469000000001
Süderau,53.817454000000005,9.514632
Vaale,53.998903000000006,9.375863
Vaalermoor,53.978051,9.331485
Wacken,54.023306000000005,9.377494
Warringholz,54.079889,9.464331
Westermoor,53.914577,9.629191
Wewelsfleth,53.844682999999996,9.400815
Wiedenborstel,54.043417000000005,9.763558999999999
Willenscharen,54.009917,9.808926
Wilster,53.922247999999996,9.374704
Winseldorf,53.94426,9.606297999999999
Wittenbergen bei Kellinghusen,53.933831000000005,9.682313
Wrist,53.933565,9.755877
Wulfsmoor,53.911999,9.723974
Kollmar,53.73155241808898,9.466180801391602
Neuendorf-Sachsenbande,53.961505,9.326956
Neuendorf bei Wilster,53.961505,9.326956
Sachsenbande bei Wilster,53.959756999999996,9.350719
Stormarn,53.72151272727273,10.358614545454545
Ahrensburg,53.67579,10.23845
Badendorf,53.866640000000004,10.57859
Bad Oldesloe,53.80803,10.37341
Bargfeld-Stegen,53.76493000000001,10.181980000000001
Bargteheide,53.7335,10.26927
Barnitz,53.805640000000004,10.499939999999999
Barsbüttel,53.568419999999996,10.16282
Braak bei Hamburg,53.608495999999995,10.246749000000001
Delingsdorf,53.70839,10.25177
Elmenhorst,53.7652,10.2635
Glinde,53.54073100000001,10.211394
Grabau,53.80434,10.27367
Grande,53.58243,10.3871799999999
Grönwohld,53.641909999999996,10.408733
Großensee,53.614090000000004,10.34093
Großhansdorf,53.66805,10.28535
Hamberge,53.83821,10.57752
Hamfelde in Holstein (Kreis Stormarn),53.60363,10.45336
Hammoor bei Ahrensburg,53.71357,10.3196399999999
Heidekamp,53.8542,10.500960000000001
Heilshoop,53.88636999999999,10.5303
Hohenfelde,53.63055,10.47338
Hoisdorf,53.65303,10.32755
Jersbek,53.74119,10.2218
Klein Wesenberg,53.810880000000004,10.54527
Köthel (Stormarn),53.61075,10.51186
Lütjensee,53.650659999999995,10.36402
Meddewade,53.8096,10.43967
Mönkhagen,53.89951,10.55805
Neritz bei Bad Oldesloe,53.78573000000001,10.2846999999999
Nienwohld,53.78638,10.1932
Oststeinbek,53.54221,10.16569
Pölitz,53.773680000000006,10.38221
Rausdorf,53.58935,10.32912
Rehhorst,53.87566999999999,10.47022
Reinbek,53.51071999999999,10.24831
Reinfeld (Holstein),53.824940000000005,10.49315
Rethwisch,53.78185,10.44231
Rümpel,53.78294,10.35188
Siek,53.635059999999996,10.297360000000001
Stapelfeld,53.60558,10.21993
Tangstedt,53.731880000000004,10.08447
Todendorf,53.69398,10.3446
Tremsbüttel,53.742619999999995,10.310889999999999
Trittau,53.61096,10.40473
Westerau,53.77868,10.49193
Witzhave,53.56718000000001,10.334480000000001
Zarpen,53.870509999999996,10.51826
Brunsbek,53.59509,10.26694
Lasbek,53.733909999999995,10.36571
Ammersbek,53.69804,10.183710000000001
Steinburg,53.69177,10.39204
Travenbrück,53.832280000000004,10.30751
Feldhorst,53.85141643191611,10.419136072749302
Wesenberg,53.8334997564433,10.5332127445221
Freie und Hansestadt Hamburg,53.554423,9.994583
Hamburg,53.554423,9.994583
Hamburg-Insel Neuwerk,53.92024619747729,8.5002545095253
Allermöhe,53.48774,10.11708
Alsterdorf,53.6108,10.0131
Altengamme,53.4306,10.2678
Altenwerder,53.5047,9.92056
Altona-Altstadt,53.5503,9.93528
Altona-Nord,53.5614,9.94472
Bahrenfeld,53.5697,9.90917
Barmbek-Nord,53.5961,10.0511
Barmbek-Süd,53.5796,10.03838
Bergedorf,53.4829909938915,10.2175161163329
Bergstedt,53.6672,10.1306
Billbrook,53.52336,10.0862999999999
Billstedt,53.5411,10.1242
Billwerder,53.5069,10.1256
Blankenese,53.5575,9.80306
Borgfelde,53.55406,10.033380000000001
Bramfeld,53.6122,10.0886
Cranz,53.5364,9.77972
Curslack,53.45296,10.23222
Dulsberg,53.5825,10.0625
Duvenstedt,53.71071,10.10577
Eidelstedt,53.60702,9.906310000000001
Eilbek,53.5661,10.0475
Eimsbüttel,53.5725,9.94972
Eißendorf,53.456269999999996,9.95478
Eppendorf,53.5892,9.98139
Farmsen-Berne,53.6081,10.1272
Finkenwerder,53.5303,9.868889999999999
Francop,53.5075,9.854439999999999
Fuhlsbüttel,53.6289,10.0161
Groß Borstel,53.6086,9.986939999999999
Groß Flottbek,53.5658,9.879439999999999
Hamburg-Altstadt,53.5453,9.995280000000001
Hamm-Mitte,53.5531,10.0511
Hamm-Nord,53.5603,10.0511
Hamm-Süd,53.5486,10.0511
Hammerbrook,53.54464,10.0280700000001
Harburg,53.4592,9.98056
Harvestehude,53.57765,9.988010000000001
Hausbruch,53.47085,9.88847
Heimfeld,53.463919999999995,9.956339999999999
Hoheluft-Ost,53.5828,9.980830000000001
Hoheluft-West,53.5808,9.96833
Hohenfelde,53.5628,10.0264
Horn,53.55421,10.08957
Hummelsbüttel,53.6539,10.0486
Iserbrook,53.5781,9.82806
Jenfeld,53.5772,10.1281
Kirchwerder,53.4397,10.1719
Kleiner Grasbrook,53.5297,9.98833
Klostertor,53.54656,10.0141
Langenbek,53.4328,9.99083
Langenhorn,53.66565,10.00129
Lemsahl-Mellingstedt,53.67351,10.09503
Lohbrügge,53.5089,10.1983
Lokstedt,53.6031,9.956389999999999
Lurup,53.5939,9.87417
Marienthal,53.5594,10.0858
Marmstorf,53.4339,9.95889
Gut Moor,53.4508,10.0186
Moorburg,53.4883,9.93028
Moorfleet,53.5092,10.0828
Neuenfelde,53.5217,9.80028
Neuengamme,53.4456,10.2211
Neugraben-Fischbek,53.4772,9.84583
Neuland,53.4672,10.0297
Neustadt,53.5497,9.979439999999999
Niendorf,53.6186,9.961110000000001
Nienstedten,53.55471,9.8446
Ochsenwerder,53.4719,10.0942
Ohlsdorf,53.6219,10.0411
Osdorf,53.5736,9.852219999999999
Othmarschen,53.552659999999996,9.893930000000001
Ottensen,53.55356,9.918289999999999
Poppenbüttel,53.6564,10.0742
Rahlstedt,53.6072,10.1606
Reitbrook,53.4683,10.1444
Rissen,53.5847,9.75639
Rönneburg,53.4319,10.0094
Rothenburgsort,53.5356,10.0369
Rotherbaum,53.5694,9.98528
Sasel,53.6522,10.1169
Schnelsen,53.6364,9.93056
Sinstorf,53.4208,9.9875
Spadenland,53.4814,10.0664
Sankt Georg,53.5564,10.0144
Sankt Pauli,53.55648000000001,9.9644
Steilshoop,53.6158,10.0572
Steinwerder,53.5392,9.96139
Stellingen,53.59216,9.92877
Sülldorf,53.5856,9.79889
Tatenberg,53.4936,10.0797
Tonndorf,53.5869,10.1175
Uhlenhorst,53.5714,10.0189
Veddel,53.5281,10.0217
Volksdorf,53.6497,10.1842
Waltershof,53.5292,9.921389999999999
Wandsbek,53.5794,10.0864
Wellingsbüttel,53.6431,10.0897
Wilhelmsburg,53.4978,10.0189
Wilstorf,53.4436,9.984169999999999
Winterhude,53.5953,10.0122
Wohldorf-Ohlstedt,53.7019,10.1306
Braunschweig,52.269009999999994,10.52597
Braunschweig,52.269020000000005,10.5259599999999
Salzgitter,52.14965,10.33671
Salzgitter,52.14978,10.336730000000001
Bad,52.0492,10.3719
Barum,52.1211,10.4222
Beddingen,52.1825,10.4236
Beinum,52.07501318851521,10.411964373016401
Bleckenstedt,52.177806579062995,10.4066785423279
Bruchmachtersen,52.14139,10.31332
Calbecht,52.09132,10.38125
Drütte,52.1531,10.4439
Engelnstedt,52.1692,10.3539
Engerode,52.08903,10.372689999999999
Flachstöckheim,52.0856,10.4392
Gebhardshagen,52.10569,10.35947
Gitter,52.0358,10.3531
Groß Mahner,52.0514,10.4094
Hallendorf,52.1542,10.3792
Heerte,52.12482,10.388860000000001
Hohenrode,52.0244,10.3486
Immendorf,52.1461,10.4428
Lebenstedt,52.15665,10.3232399999999
Lesse,52.1606,10.2569
Lichtenberg,52.12692461474651,10.290407867736802
Lobmachtersen,52.10157,10.424710000000001
Ohlendorf,52.0619,10.4464
Osterlinde,52.1286,10.2492
Reppner,52.173359999999995,10.30831
Ringelheim,52.0369111967591,10.309270846557599
Salder,52.1356,10.3356
Sauingen,52.1892,10.4122
Thiede,52.1881,10.4786
Üfingen,52.2006,10.4111
Watenstedt,52.1461,10.4072
Wolfsburg,52.43788000000001,10.7663700000001
Gifhorn,52.52641951219512,10.608129268292684
Adenbüttel,52.38193892728311,10.452558746032802
Barwedel,52.52131,10.775260000000001
Bergfeld,52.54486,10.8495399999999
Bokensdorf,52.4979,10.72855
Brome,52.6005,10.93559
Calberlah,52.4240572373818,10.621574169311499
Dedelstorf,52.715319807089,10.5128592486573
Ehra-Lessien,52.583600181339904,10.7830913543701
Gifhorn,52.478269999999995,10.54901
Groß Oesingen,52.64779,10.4635
Hankensbüttel,52.72849,10.60392
Hillerse,52.41301,10.4039
Isenbüttel,52.436769999999996,10.57677
Jembke,52.5002090011535,10.763653010559
Leiferde,52.44024,10.432939999999999
Meine,52.384890000000006,10.5385
Meinersen,52.472409999999996,10.36015
Müden (Aller),52.52591999999999,10.3634099999999
Obernholz,52.75031,10.62037
Osloß,52.4711,10.68229
Parsau,52.53595,10.8879400000001
Ribbesbüttel,52.4336139767684,10.509490222167999
Rötgesbüttel,52.41594,10.53048
Rühen,52.488009999999996,10.8873100000001
Sassenburg,52.51546,10.63084
Schönewörde,52.6316330290829,10.6267768676757
Schwülper,52.3562647621326,10.4319696243288
Sprakensehl,52.76601259917499,10.4893262698364
Steinhorst,52.68916,10.4035699999999
Tappenbeck,52.472069999999995,10.7393999999999
Tiddische,52.51781,10.806610000000001
Tülau,52.57716,10.87727
Ummern,52.58854,10.4414899999999
Vordorf,52.365384462643995,10.5203749841309
Wagenhoff,52.5523301,10.523750000000101
Wahrenholz,52.61589,10.59843
Wasbüttel,52.41263,10.59272
Wesendorf,52.592883474115,10.5346303756714
Weyhausen,52.462030000000006,10.71976
Wittingen,52.728880000000004,10.7352100000001
Didderse,52.38089,10.40254
Göttingen,51.53161034482759,10.014374137931034
Adelebsen,51.5806701,9.753979999999961
Bilshausen,51.630021527819395,10.158116931152302
Bodensee,51.605909999999994,10.13096
Bovenden,51.59004,9.932779999999982
Bühren bei Göttingen,51.4849569334176,9.68118423278815
Dransfeld,51.500479999999996,9.76157000000001
Duderstadt,51.51214,10.251619999999999
Ebergötzen,51.57118139976421,10.1073444549561
Friedland,51.42027,9.913040000000018
Gieboldehausen,51.60706,10.21925
Gleichen,51.4617527165295,10.0388988885497
Göttingen,51.53738,9.92923999999994
Jühnde,51.46301,9.79786999999999
Krebeck,51.588359999999994,10.12105
Landolfshausen,51.53966,10.1034099999999
Hann. Münden,51.4201,9.65547000000004
Niemetal,51.501240288499204,9.715489121703971
Obernfeld,51.555479999999996,10.23285
Rhumspringe,51.582240000000006,10.30022
Rollshausen,51.57172,10.2149400000001
Rosdorf,51.50584,9.90407000000005
Rüdershausen,51.580220000000004,10.26805
Scheden,51.458659999999995,9.727020000000039
Seeburg,51.56507,10.14737
Seulingen,51.5412407444944,10.1631128836059
Staufenberg,51.34984,9.597989999999982
Waake,51.556509999999996,10.05583
Wollbrandshausen,51.5870598311647,10.1609064285278
Wollershausen,51.59715,10.25323
Goslar,51.908390000000004,10.44638
Altenau,51.8026007674846,10.446395111084
Bad Harzburg,51.8998,10.5622
Bad Harzburg,51.8831,10.5644
Bettingerode,51.9029,10.5655
Bündheim,51.89801,10.5473500000001
Göttingerode,51.8991,10.5182
Harlingerode,51.90835,10.52208
Schlewecke bei Bad Harzburg,51.8995,10.5378
Westerode,51.9027,10.56215
Eckertal,51.9002,10.6518
Bündheim / Schlewecke,51.89887,10.54315
Braunlage,51.72513,10.61041
Clausthal-Zellerfeld,51.8093939012619,10.339908963012698
Goslar,51.908390000000004,10.4468091534424
Altstadt,51.91773,10.42704
Hahndorf,51.9547,10.4353
Hahnenklee-Bockswiese,51.8579,10.3399
Jerstedt,51.9585,10.3895
Oker,51.9066,10.4846
Hahausen,51.94775,10.21849
Langelsheim,51.93581,10.3324700000001
Liebenburg,52.023249564120206,10.4302589416504
Lutter am Barenberge,51.98964303398851,10.2677299682618
Sankt Andreasberg,51.713229999999996,10.5168
Schulenberg im Oberharz,51.8356867010853,10.433471661377
Seesen,51.8894,10.17725
Vienenburg,51.95167,10.55764
Wallmoden,52.01215699717339,10.2620651428223
Wildemann,51.82898,10.28248
Helmstedt,52.23909615384615,10.918596153846154
Bahrdorf,52.38511,10.99917
Beierstedt,52.0736143339601,10.8579478994751
Büddenstedt,52.171409999999995,11.01955
Danndorf,52.42641,10.915569999999999
Frellstedt,52.20487,10.91511
Gevensleben,52.07636,10.82334
Grafhorst,52.443740000000005,10.9452200000001
Grasleben,52.30585,11.0158300000001
Groß Twülpstedt,52.3671192675583,10.916614169311499
Helmstedt,52.229440000000004,11.00902
Ingeleben,52.106190000000005,10.87364
Jerxheim,52.083510976541206,10.9001502037048
Königslutter am Elm,52.25248,10.814010000000101
Lehre,52.32713,10.66893
Mariental bei Helmstedt,52.301390000000005,10.97645
Querenhorst,52.33671,10.9622400000001
Räbke,52.1950943288754,10.8799957989502
Rennau,52.29606324100929,10.9112497512817
Schöningen,52.13791,10.96572
Söllingen,52.0916591822496,10.926090222168
Süpplingen,52.22786,10.90506
Süpplingenburg,52.25043,10.91227
Twieflingen,52.1256,10.91743
Velpke,52.4073561006026,10.940272883606
Warberg,52.18098,10.9206
Wolsdorf,52.1890856143246,10.941259560852
Northeim,51.734725,9.8777725
Bad Gandersheim,51.870662,10.024588
Bodenfelde,51.63971,9.55738999999994
Dassel,51.80087,9.688290000000052
Einbeck,51.82072,9.86814000000004
Hardegsen,51.65279,9.82824000000005
Kalefeld,51.7981422170856,10.0333858306885
Katlenburg-Lindau,51.666561922328206,10.1130454232788
Kreiensen,51.8539,9.965840000000071
Moringen,51.69903,9.8691
Nörten-Hardenberg,51.625820000000004,9.93538999999998
Northeim,51.7005131180301,9.99606332275391
Uslar,51.660509999999995,9.63797999999997
Osterode am Harz,51.690625,10.3411375
Bad Grund (Harz),51.80965,10.237509999999899
Bad Lauterberg im Harz,51.62533,10.4615
Bad Sachsa,51.5968435140671,10.5559258306885
Badenhausen,51.769355802437204,10.2070869628906
Eisdorf,51.7608566846039,10.175283068847598
Elbingerode,51.65898,10.277989999999999
Gittelde,51.7975,10.187560000000001
Hattorf am Harz,51.6488,10.238339999999999
Herzberg am Harz,51.6517945904597,10.3375441693115
Hörden am Harz,51.66838,10.283610000000001
Osterode am Harz,51.72975,10.25836
Walkenried,51.58813,10.6129100000001
Wieda,51.6302,10.5836
Windhausen,51.78601,10.21142
Wulften am Harz,51.66215,10.17633
Zorge,51.61504,10.6244
Peine,52.32032,10.24337
Edemissen bei Peine,52.3874,10.2584899999999
Hohenhameln,52.25927,10.06663
Ilsede,52.26397,10.2066
Lahstedt,52.24308,10.22012
Lengede,52.20645,10.31241
Peine,52.3203686955316,10.2434337619018
Vechelde,52.260784,10.372775
Wendeburg,52.32555,10.38762
Wolfenbüttel,52.164229999999996,10.5403200000001
Achim,52.06005,10.61132
Baddeckenstedt,52.0861480991576,10.232613354492099
Börßum,52.06909,10.5818899999999
Burgdorf bei Salzgitter,52.14404587936421,10.2175295608521
Cramme,52.11315,10.44641
Cremlingen,52.247279999999996,10.65189
Dahlum,52.133458055169,10.8499785423279
Denkte,52.1461636650399,10.6085258624267
Dettum,52.17132,10.6655900000001
Dorstadt,52.09813,10.564869999999999
Elbe,52.08316813915529,10.2830425079346
Erkerode,52.20472,10.7102
Evessen,52.1904247649893,10.715000439148
Flöthe,52.0828516715384,10.483128338622901
Gielde,52.037620000000004,10.4931
Haverlah,52.0535070828071,10.3283218200684
Hedeper,52.06578,10.68088
Heere,52.066713190967,10.2498927116394
Heiningen bei Wolfenbüttel,52.0701,10.55605
Hornburg,52.03123,10.605369999999999
Kissenbrück,52.110409999999995,10.58869
Kneitlingen,52.17488,10.7621799999999
Ohrum,52.11914,10.56367
Remlingen,52.11355,10.67399
Roklum,52.0674386881499,10.741196423339801
Schladen,52.019909999999996,10.54692
Schöppenstedt,52.14519,10.77522
Sehlde bei Salzgitter,52.03947,10.26805
Semmenstedt,52.0941735598553,10.6977684020997
Sickte,52.216594826945894,10.63703956604
Uehrde,52.09919,10.764330000000001
Vahlberg bei Schöppenstedt,52.133431712679794,10.716657084655699
Veltheim (Ohe),52.21862,10.68242
Werlaburgdorf,52.051390000000005,10.5357799999999
Winnigstedt,52.06681,10.76665
Wittmar,52.13088,10.64203
Wolfenbüttel,52.164177039921206,10.540377084655802
Region Hannover,52.3844936156149,9.72700752380365
Hannover,52.3705,9.7332
Barsinghausen,52.2966,9.48058000000003
Burgdorf,52.44724,10.00535
Burgwedel,52.52975,9.79805999999996
Garbsen,52.43648,9.60527999999999
Gehrden / Hannover,52.31227,9.600630000000018
Hemmingen / Hannover,52.3220822491819,9.72986203704841
Isernhagen,52.47837,9.80134999999996
Laatzen bei Hannover,52.30854,9.809009999999939
Langenhagen,52.44801218213821,9.74497890472412
Lehrte bei Hannover,52.3751,9.97721999999999
Neustadt am Rübenberge,52.503780000000006,9.449780000000029
Pattensen bei Hannover,52.26528,9.761349999999991
Ronnenberg,52.3183264778189,9.654591941833472
Seelze,52.39501,9.59397000000001
Sehnde,52.31756,9.96745999999996
Springe,52.21091,9.553290000000061
Uetze,52.4645902029321,10.203155423278801
Wedemark,52.5474686649829,9.74573253448489
Wennigsen (Deister),52.27729,9.573010000000071
Wunstorf,52.421330100000006,9.43474
Diepholz,52.68865744680851,8.694680638297871
Affinghausen,52.78504,8.87553000000003
Asendorf bei Bruchhausen-Vilsen,52.77271,9.00443999999993
Bahrenborstel,52.57099,8.809849999999981
Barenburg bei Sulingen,52.61946,8.80119999999999
Barnstorf,52.7066,8.49793
Barver,52.6109948779896,8.58667959259037
Bassum,52.85034,8.7287
Borstel bei Sulingen,52.67066,8.97023999999999
Brockum,52.46841,8.42044999999996
Bruchhausen-Vilsen,52.82809,8.99185999999997
Dickel,52.643519999999995,8.47609999999997
Diepholz,52.60584,8.37071000000003
Drebber,52.6509,8.42286999999999
Drentwede,52.7463,8.57465000000002
Ehrenburg bei Sulingen,52.746469999999995,8.70609000000002
Engeln bei Bruchhausen-Vilsen,52.79121,8.919120000000019
Eydelstedt,52.7153,8.524620000000029
Freistatt bei Sulingen,52.6245,8.65116
Hemsloh,52.60176136053371,8.51072915344241
Hüde bei Diepholz,52.495059,8.356695
Kirchdorf bei Sulingen,52.596169999999994,8.83703000000003
Lembruch,52.525819999999996,8.36567000000002
Lemförde,52.464569999999995,8.37473999999997
Maasen,52.69055,8.886690000000039
Marl,52.48445,8.36538999999993
Martfeld,52.876419999999996,9.06273999999996
Mellinghausen,52.705819999999996,8.89922999999999
Neuenkirchen bei Bassum,52.77616,8.752209999999991
Quernheim bei Diepholz,52.463080000000005,8.39467999999999
Rehden,52.60924,8.478920000000018
Scholen bei Sulingen,52.73968000000001,8.76799000000005
Schwaförden,52.737730000000006,8.81852000000003
Schwarme,52.89734,9.018569999999949
Siedenburg,52.69184,8.94102999999996
Staffhorst,52.7202379824926,8.97814755554191
Stemshorn,52.454609999999995,8.35992999999996
Stuhr,53.0293771310114,8.736782073974611
Sudwalde,52.7959521452905,8.841073608398462
Süstedt,52.86168000000001,8.92160000000001
Sulingen,52.68331,8.810929999999981
Syke,52.912859999999995,8.817819999999982
Twistringen,52.797090000000004,8.63827000000003
Varrel bei Sulingen,52.621340000000004,8.73387
Wagenfeld,52.54801,8.58950000000004
Wehrbleck,52.631484178583,8.6907412857056
Wetschen,52.612230000000004,8.44927000000007
Weyhe bei Bremen,52.98285,8.85421999999994
Hameln-Pyrmont,52.0895875,9.3875
Aerzen,52.04793,9.26021000000003
Bad Münder am Deister,52.1996701,9.46638000000007
Bad Pyrmont,51.98679,9.25214000000005
Coppenbrügge,52.11779,9.54615000000001
Emmerthal,52.04615,9.38564999999994
Hameln,52.10887,9.36589000000004
Hessisch Oldendorf,52.17203,9.245760000000018
Salzhemmendorf,52.0664361798423,9.58847984130853
Hildesheim,52.06208,9.89374925
Adenstedt bei Alfeld,52.0007,9.93519000000003
Alfeld (Leine),51.9836964659436,9.83315833862298
Algermissen,52.25278,9.970440000000051
Almstedt,52.03265,9.962289999999939
Bad Salzdetfurth,52.05813,10.0106900000001
Banteln,52.0673067804479,9.7525749206543
Betheln,52.11224,9.79128000000003
Bockenem,52.00976,10.13298
Brüggen,52.04074,9.77898000000005
Despetal,52.083520543670204,9.84237629119866
Diekholzen,52.09382,9.91619000000003
Eberholzen,52.0542,9.85257999999999
Eime,52.0731,9.72343000000001
Elze,52.12122,9.738240000000019
Everode,51.95003,9.915039999999982
Freden (Leine),51.92862,9.897209999999971
Giesen bei Hildesheim,52.19623,9.89615000000003
Gronau (Leine),52.08511,9.78341
Harbarnsen,51.99091,9.95861000000002
Harsum,52.20968,9.96167000000003
Hildesheim,52.14135,9.96602000000007
Holle bei Hildesheim,52.088574114336204,10.158754730224599
Lamspringe,51.960840000000005,10.01181
Landwehr bei Alfeld,51.9192765333646,9.976967021179231
Neuhof bei Hildesheim,51.9803,10.032869999999999
Nordstemmen,52.16312,9.78845000000001
Rheden,52.058009999999996,9.78710999999998
Sarstedt,52.23726,9.854360000000039
Schellerten,52.18731,10.102310000000001
Sehlem,52.011379999999996,9.97483
Sibbesse,52.05424,9.902370000000019
Söhlde,52.189192740531,10.2322475238038
Westfeld bei Alfeld,52.04222,9.91310999999996
Winzenburg,51.93778,9.93839000000003
Woltershausen,51.97364,9.957580000000009
Coppengrave,51.98602,9.72438
Duingen,52.00522,9.69731000000002
Hoyershausen,52.01921,9.75323000000003
Marienhagen bei Alfeld,52.037009999999995,9.68651999999997
Weenzen,52.02089,9.672310000000039
Holzminden,51.890109375,9.5421871875
Arholzen,51.8666,9.57041000000004
Bevern,51.8574,9.49436000000003
Bodenwerder,51.97991,9.50916000000007
Boffzen,51.731929718252104,9.448346746521
Brevörde,51.9121468496109,9.429887926025462
Deensen,51.859714155771506,9.594132829361119
Delligsen,51.94123,9.802010000000001
Derental,51.695170000000005,9.43173000000002
Dielmissen,51.97022,9.60723000000007
Eimen,51.87725,9.780650000000039
Eschershausen,51.9296,9.63922000000002
Fürstenberg,51.72876,9.40271000000007
Golmbach,51.89975,9.54498000000001
Halle,51.99053,9.56191000000001
Hehlen bei Holzminden,51.98538,9.470249999999961
Heinade,51.83916,9.63291000000004
Heinsen,51.8838297998633,9.435561597900461
Heyen,52.007870000000004,9.504810000000019
Holenberg,51.90987,9.58590000000004
Holzen,51.9343,9.66766000000007
Holzminden,51.82612,9.46006
Kirchbrak,51.96307,9.57236
Lauenförde,51.65954,9.386430000000018
Lenne am Solling,51.89509,9.68154000000004
Lüererdissen am Ith,51.9522218143122,9.625424730224609
Negenborn bei Holzminden,51.89154,9.5719
Ottenstein,51.9458205748092,9.408325576782198
Pegestorf,51.92787,9.498180000000051
Polle,51.89798745159221,9.403175735473608
Stadtoldendorf,51.8826255600708,9.628370666503882
Vahlbruch,51.920790000000004,9.34099
Wangelnstedt,51.8691114290211,9.687964857177802
Nienburg (Weser),52.611847297297295,9.155330135135136
Balge,52.7184,9.18648
Binnen,52.6193,9.132309999999961
Bücken bei Hoya,52.7795,9.13844
Diepenau,52.42176,8.73274000000004
Drakenburg,52.691167424868496,9.22883532806395
Estorf,52.5925,9.14739
Estorf,52.5881,9.1415
Leeseringen,52.5975,9.15328
Eystrup,52.7764,9.21752
Gandesbergen,52.7602,9.2227
Hämelhausen,52.7804,9.28035
Hassel (Weser),52.8024,9.20549
Haßbergen,52.7296,9.230089999999999
Heemsen,52.705259999999996,9.25217999999995
Anderten,52.739603930514896,9.321815391540552
Gadesbünden,52.71419,9.276100000000039
Heemsen,52.7427,9.26335
Lichtenmoor,52.70553,9.305540000000061
Hilgermissen,52.8442,9.15605
Hoya,52.8065,9.139569999999999
Hoyerhagen,52.8289,9.08564
Husum,52.56494,9.25058000000001
Landesbergen,52.558330000000005,9.12719000000004
Brokeloh,52.5463,9.20846
Heidhausen,52.5427,9.14445
Landesbergen,52.5625,9.12458
Hahnenberg,52.5306,9.12311
Leese,52.50448000000001,9.11532999999997
Liebenau,52.606386641010396,9.08711796295165
Linsburg,52.59313,9.30458999999996
Marklohe,52.662384248725004,9.15183294708254
Nienburg (Weser),52.6493,9.23655
Erichshagen-Wölpe,52.6645,9.24487
Holtorf,52.6757,9.22713
Langendamm,52.6173,9.26039
Nienburg (Weser),52.6397,9.21383
Pennigsehl,52.6478,9.02979
Raddestorf,52.4552,8.963460000000001
Rehburg-Loccum,52.4508,9.20787
Bad Rehburg,52.4382,9.21509
Loccum,52.4539,9.14592
Münchehagen,52.4395,9.1886
Rehburg,52.47521,9.22946999999999
Winzlar,52.4476,9.260710000000001
Rodewald,52.6658,9.48212
Rohrsen,52.7099,9.23231
Schweringen,52.7481,9.18352
Steimbke,52.6622,9.40414
Lichtenhorst,52.7188,9.40156
Steimbke,52.6555,9.391210000000001
Wendenborstel,52.6469,9.43482
Steyerberg,52.5846,8.99484
Deblinghausen,52.593819999999994,8.96942000000001
Düdinghausen,52.5786,8.97081
Steyerberg,52.5679,9.02598
Voigtei,52.6083,8.92252
Wellie,52.5755,9.07896
Stöckse,52.6357,9.33874
Wenden,52.6276,9.38899
Stolzenau,52.5079,9.03611
Anemolter,52.5454,9.07013
Diethe bei Stolzenau,52.4736,9.00832
Frestorf bei Stolzenau,52.4857,9.0039
Hibben,52.5023,9.02892
Holzhausen,52.5207,9.05688
Müsleringen,52.4893,9.02745
Nendorf bei Stolzenau,52.49969,8.986130000000001
Schinna,52.5364,9.07307
Stolzenau,52.51719,9.069960000000039
Anemolter-Schinna,52.5409,9.0716
Uchte,52.4992,8.90905
Warmsen,52.45251999999999,8.84962999999993
Warpe,52.7404,9.10518
Wietzen,52.7103,9.0734
Schaumburg,52.2939525,9.2145336875
Ahnsen bei Stadthagen,52.256029999999996,9.096139999999991
Apelern,52.3023,9.31588
Apelern,52.2895,9.33355
Groß Hegesdorf,52.3088,9.3065
Kleinhegesdorf,52.3178,9.32185
Lyhren,52.3007,9.31893
Reinsdorf,52.2895,9.28969
Soldorf,52.3079,9.32477
Auetal,52.2403,9.23321
Altenhagen,52.2611,9.05723
Antendorf,52.2405,9.29261
Bernsen,52.2211,9.17053
Borstel,52.2292,9.19466
Escher,52.2373,9.26702
Hattendorf,52.2346,9.28238
Kathrinhagen,52.2364,9.20635
Klein Holtensen,52.2611,9.286760000000001
Poggenhagen bei Rinteln,52.2288,9.20562
Raden,52.2297,9.31015
Rannenberg bei Rinteln,52.2166,9.24729
Rehren bei Rinteln,52.23397,9.235840000000051
Rolfshagen,52.2319,9.144219999999999
Schoholtensen,52.2679,9.28603
Westerwald bei Rinteln,52.2499,9.23705
Wiersen,52.26553,9.30664000000002
Auhagen,52.39342,9.283239999999982
Auhagen,52.3934143041495,9.2837879312134
Düdinghausen,52.4139,9.2975
Bad Eilsen,52.2414,9.10255
Bad Nenndorf,52.3407,9.36717
Bad Nenndorf,52.3358,9.3774
Horsten,52.3393,9.35182
Riepen,52.3447,9.33428
Waltringhausen,52.3429,9.40518
Beckedorf bei Stadthagen,52.3443,9.31673
Buchholz bei Stadthagen,52.2261,9.12375
Bückeburg,52.2845,9.04948
Achum,52.2868,9.08501
Bergdorf,52.2548,9.06235
Bückeburg,52.2607,9.04919
Cammer,52.3119,8.99656
Evesen,52.2818,8.99437
Luhden-Selliendorf,52.2252,9.092319999999999
Meinsen,52.2966,9.05211
Müsingen,52.2701,9.07258
Rusbend,52.3119,9.06819
Scheie,52.27628,9.05425000000002
Warber,52.2939,9.060880000000001
Hagenburg bei Wunstorf,52.4341,9.3317
Altenhagen,52.4382,9.3431
Hagenburg,52.4301,9.320310000000001
Haste bei Wunstorf,52.3798,9.39202
Heeßen,52.2346,9.10694
Helpsen,52.3035,9.125210000000001
Helpsen,52.31072,9.120009999999981
Kirchhorsten,52.3029,9.13252
Südhorsten,52.2966,9.12594
Hespe bei Stadthagen,52.3248,9.1101
Hespe-Hiddensen,52.3335,9.10474
Levesen,52.3214,9.11936
Stemmen,52.3196,9.10621
Heuerßen,52.328601905685396,9.27867793121345
Heuerßen,52.3294,9.27872
Kobbensen,52.3384,9.29042
Hohnhorst bei Wunstorf,52.3657,9.35401
Hohnhorst,52.36947,9.37130000000002
Ohndorf,52.3551,9.34963
Rehren bei Rodenberg,52.3731,9.340860000000001
Hülsede,52.2493,9.36278
Hülsede,52.2499,9.36132
Meinsen,52.2553,9.35255
Schmarrie,52.2427,9.37448
Lauenau,52.2782,9.3785
Feggendorf,52.2836,9.38764
Lauenau,52.2728,9.36936
Lauenhagen bei Stadthagen,52.3629,9.21805
Hülshagen,52.368159999999996,9.216940000000019
Lauenhagen,52.3569,9.20928
Lindhorst bei Stadthagen,52.35817,9.28339000000005
Lindhorst,52.3578,9.28311
Ottensen,52.3681,9.29919
Schöttlingen,52.3479,9.27872
Lüdersfeld,52.3497,9.25057
Lüdersfeld,52.3582,9.25094
Vornhagen,52.3411,9.250210000000001
Luhden,52.2243,9.08281
Schermbeck,52.2234,9.07258
Meerbeck bei Stadthagen,52.3393,9.13374
Kuckshagen,52.3358,9.1296
Meerbeck,52.34272,9.150020000000039
Volksdorf,52.3402,9.11936
Messenkamp,52.260082000000004,9.379738
Altenhagen II,52.2616,9.39933
Messenkamp,52.2589,9.394219999999999
Niedernwöhren,52.3519,9.1486
Nienstädt bei Stadthagen,52.2898562524757,9.1628205978393
Liekwegen,52.2863,9.17448999999999
Nienstädt,52.28985,9.16275999999993
Nordsehl,52.3555,9.18223
Obernkirchen,52.2665,9.11775
Gelldorf,52.2836,9.11863
Krainhagen,52.2499,9.12229
Obernkirchen,52.2701,9.12887
Röhrkasten,52.2562,9.116439999999999
Vehlen,52.2728,9.10255
Pohle,52.2638,9.340119999999999
Pollhagen,52.3766,9.188080000000001
Rinteln,52.20205,9.07592
Ahe,52.1843,9.13849
Deckbergen,52.2018,9.168339999999999
Engern,52.1946,9.10719
Exten,52.1694,9.09628
Friedrichswald,52.1348,9.14795
Goldbeck,52.1034,9.151589999999999
Hohenrode,52.1712,9.149410000000001
Kohlenstädt,52.1856,9.149410000000001
Krankenhagen,52.1537,9.08099
Möllenbeck,52.1645,9.0315
Schaumburg,52.20111,9.19529
Steinbergen,52.2099,9.1201
Todenmann,52.2122,9.05357
Uchtdorf,52.1578,9.09919
Volksen,52.1429,9.10719
Wennenkamp,52.1447,9.13776
Westendorf,52.2032,9.14787
Strücken,52.1668,9.11593
Rodenberg,52.3178,9.34999
Algesdorf,52.3241,9.34305
Rodenberg,52.3115,9.35694
Sachsenhagen,52.3901,9.24729
Nienbrügge,52.3829,9.22682
Sachsenhagen,52.3969,9.26702
Seggebruch,52.31122,9.11063000000001
Schierneichen-Deinsen,52.3124,9.09305
Seggebruch,52.31119,9.11037999999996
Tallensen-Echtorf,52.2926,9.09159
Stadthagen,52.3137,9.21318
Enzen,52.32456,9.15733999999998
Habichhorst,52.31597,9.232920000000039
Hobbensen,52.3236,9.144219999999999
Hörkamp-Langenbruch,52.2917,9.232669999999999
Krebshagen,52.3011,9.20562
Obernwöhren,52.3029,9.2429
Probsthagen,52.3416,9.232669999999999
Reinsen-Remeringhausen,52.3182,9.271410000000001
Stadthagen,52.3232,9.19904
Wendthagen-Ehlen,52.2935,9.20562
Blyinghausen,52.3169,9.2524
Habichhorst-Blyinghausen,52.3164,9.24399
Suthfeld,52.3576,9.389339999999999
Helsinghausen,52.3641,9.38618
Kreuzriehe,52.35595,9.38571999999999
Riehe,52.3528,9.39568
Wiedensahl,52.3825,9.11936
Wölpinghausen,52.4195,9.25574
Bergkirchen,52.41252,9.25689
Schmalenbruch-Windhorn,52.4193,9.27322
Wiedenbrügge,52.4269,9.25997
Wölpinghausen,52.4189,9.23275
Celle,52.616890000000005,10.06343
Adelheidsdorf,52.5736693219841,10.0665965502931
Ahnsbeck,52.61094,10.2852
Beedenbostel,52.642265117903996,10.259502915344198
Bergen (Kreis Celle),52.809740000000005,9.96279000000004
Bröckel,52.5171439575424,10.214554232788
Celle,52.617090000000005,10.0635
Eicklingen,52.54861999999999,10.1857199999999
Eldingen,52.68363000000001,10.34383
Eschede,52.734359999999995,10.2349
Faßberg,52.8996,10.166310000000001
Habighorst,52.70851999999999,10.22771
Hambühren,52.629290000000005,9.967039999999999
Hermannsburg,52.8359,10.093319999999899
Höfer,52.6822333248282,10.2484979629517
Hohne bei Celle,52.58764,10.37674
Lachendorf,52.61962,10.24173
Langlingen bei Celle,52.555859999999996,10.281239999999999
Nienhagen bei Celle,52.556869999999996,10.10517
Scharnhorst,52.72452,10.27332
Unterlüß,52.84503,10.2907299999999
Wathlingen,52.537769999999995,10.148430000000001
Wienhausen,52.57761,10.18625
Wietze,52.65026999999999,9.835730000000009
Winsen (Aller),52.683525384888895,9.90973775463101
Cuxhaven,53.61178103448276,8.827873620689655
Appeln,53.4527,8.896189999999999
Armstorf,53.59799,9.07335
Bad Bederkesa,53.626430000000006,8.84382000000005
Belum,53.81723,8.9931
Beverstedt,53.4311,8.82124999999996
Bokel bei Bremerhaven,53.394569999999995,8.76761999999997
Bramstedt bei Bremerhaven,53.366369999999996,8.68935999999997
Bülkau,53.7471,8.97896
Cadenberge,53.767830000000004,9.06902
Cappel bei Bremerhaven,53.727830000000004,8.569770000000059
Cuxhaven,53.8618,8.693589999999999
Dorum bei Bremerhaven,53.68974,8.56716000000006
Drangstedt,53.61489,8.74649999999997
Driftsethe,53.3791530457135,8.6195882434082
Elmlohe,53.5864,8.74220000000003
Flögeln,53.66356999999999,8.802570000000062
Frelsdorf,53.491319999999995,8.899400000000009
Geversdorf,53.796040000000005,9.078610000000001
Hagen im Bremischen,53.35839,8.64605000000006
Hechthausen,53.641169999999995,9.23718
Heerstedt,53.465469999999996,8.75212999999997
Hemmoor,53.69002,9.152519999999999
Hollen bei Bremerhaven,53.424380000000006,8.70502999999997
Hollnseth,53.56972,9.09167
Ihlienworth,53.73911,8.915569999999999
Kirchwistedt,53.42332,8.89144999999996
Köhlen bei Bremerhaven,53.5406,8.87702999999999
Kührstedt,53.57786,8.801159999999982
Lamstedt,53.63519,9.09732
Langen bei Bremerhaven,53.61026999999999,8.60697000000005
Lintig,53.60386,8.88094999999998
Loxstedt,53.47308,8.6472
Lunestedt,53.439659999999996,8.74247000000003
Midlum bei Bremerhaven,53.73129,8.617960000000041
Misselwarden,53.674459999999996,8.51608999999996
Mittelstenahe,53.65109,9.03905
Mulsum bei Bremerhaven,53.66961,8.54733999999996
Neuenkirchen,53.777730000000005,8.89297
Neuhaus (Oste),53.8015,9.03311
Nordholz bei Bremerhaven,53.78675,8.612399999999981
Nordleda,53.76308,8.835469999999999
Oberndorf,53.75166,9.14349
Odisheim,53.694390000000006,8.94117
Osten,53.69471,9.18924
Osterbruch,53.77811,8.94164
Otterndorf,53.80826999999999,8.89921
Padingbüttel,53.69931999999999,8.52735000000007
Ringstedt,53.5610415414213,8.85274658203127
Sandstedt,53.36002,8.52035999999998
Schiffdorf,53.53111,8.65201999999999
Steinau,53.682809999999996,8.869539999999999
Stinstedt,53.65968,8.971960000000001
Stubben bei Bremerhaven,53.409459999999996,8.784689999999959
Uthlede,53.310190000000006,8.57752000000005
Wanna,53.74207,8.80898999999999
Wingst,53.736259999999994,9.08798
Wremen,53.649069999999995,8.51010999999994
Wulsbüttel,53.316430807933905,8.669416582031321
Harburg,53.3085,9.971780930232558
Appel,53.39063,9.74374999999998
Asendorf,53.293690000000005,9.98169000000007
Bendestorf,53.3370869496726,9.96838661376955
Brackel bei Winsen,53.29971999999999,10.04637
Buchholz in der Nordheide,53.266059999999996,9.883103
Dohren,53.30506999999999,9.70065999999997
Drage,53.41044,10.26114
Drestedt,53.33005,9.760060000000001
Egestorf,53.19335,10.0625199999999
Eyendorf,53.20341,10.1563
Garlstorf am Walde,53.23695,10.1006
Garstedt,53.28795,10.154639999999999
Gödenstorf,53.229890000000005,10.13025
Halvesbostel,53.3553,9.5986
Handeloh,53.244890000000005,9.84127000000001
Hanstedt,53.2576701,10.01041
Harmstorf,53.3486166459425,9.98663448150637
Heidenau,53.314640000000004,9.65092000000004
Hollenstedt,53.36577,9.71482000000003
Jesteburg,53.314609999999995,9.95568000000003
Kakenstorf,53.30548,9.76196000000004
Königsmoor,53.23503,9.62900999999999
Marschacht,53.41477,10.36852
Marxen,53.31324,10.00281
Moisburg,53.4062172343099,9.69742507934575
Neu Wulmstorf,53.46442,9.800460000000001
Otter,53.240219999999994,9.74176999999997
Regesbostel,53.3806701,9.647950000000039
Rosengarten,53.377109999999995,9.898530000000001
Salzhausen,53.222609999999996,10.16985
Seevetal,53.38075,10.03942
Stelle,53.38454,10.10294
Tespe,53.39699,10.410730000000001
Toppenstedt,53.263819999999996,10.113760000000001
Tostedt,53.278569999999995,9.72122999999999
Undeloh,53.198640000000005,9.978039999999961
Vierhöfen bei Winsen,53.26936,10.21475
Welle,53.23490542787311,9.80349760055537
Wenzendorf,53.350719999999995,9.77087000000006
Winsen (Luhe),53.365230000000004,10.20917
Wistedt,53.27019,9.67778999999996
Wulfsen,53.2998,10.14058
Lüchow-Dannenberg,53.02447168141593,11.034896460176991
Bergen an der Dumme,52.8897,10.9418
Banzau,52.8877,10.9354
Belau,52.8757,10.9483
Bergen,52.8908,10.9566
Jiggel,52.907630000000005,10.96149
Malsleben,52.8742,10.9229
Nienbergen,52.86181,10.9446
Spithal,52.9046,10.9131
Wöhningen,52.8984,10.9266
Brüchauer Mühle,52.9073,10.9455
Clenze,52.9474,10.9295
Bausen,52.9685,10.9895
Beseland,52.9584,10.9614
Bösen,52.9338,10.9389
Braudel,52.9834583707009,10.873334812164302
Bussau,52.9558,10.9907
Clenze,52.9368,10.9574
Dalitz,52.9256,10.9711
Gistenbeck,52.9274,10.9835
Gohlefanz,52.9653,10.8988
Granstedt,52.9632,10.9953
Groß Sachau,52.94854,10.99659
Guhreitzen,52.9523,10.9794
Kassau,52.91311999999999,10.946769999999999
Kloster,52.9638,10.9021
Korvin,52.9481,10.9383
Kussebode,52.92199,11.00048
Lefitz,52.9459,10.9266
Meußließen,52.9403,10.8805
Mützen,52.9401,10.9384
Prießeck,52.9668,10.9737
Quartzau,52.9418,10.8948
Reddereitz,52.9655,10.9075
Satkau,52.950590000000005,10.8822299999999
Schlannau,52.95205,10.89792
Seelwig,52.958830000000006,10.95304
Vaddensen,52.9795,10.8878
Damnatz,53.13531,11.176110000000001
Barnitz,53.1471,11.1702
Damnatz,53.13462,11.1776
Jasebeck,53.1618,11.1385
Landsatz,53.1516,11.1659
Kamerun,53.1156,11.1863
Dannenberg (Elbe),53.0904,11.0924
Breese in der Marsch,53.1099,11.1326
Bückau,53.0761,11.1116
Dambeck,53.1192,11.1243
Dannenberg,53.0977,11.0943
Groß Heide,53.0538,11.1448
Gümse,53.1126,11.143839999999999
Klein Heide,53.061780000000006,11.13303
Liepehöfen,53.06405,11.11779
Lüggau,53.0977,11.0756
Nebenstedt,53.0977,11.1266
Niestedt,53.0818,11.0576
Penkefitz,53.1373,11.1387
Pisselberg,53.1126,11.0753
Prabstorf,53.0699,11.1204
Predöhlsau,53.1211,11.1008
Prisser,53.0857,11.0696
Riekau,53.0719,11.0509
Riskau,53.1089,11.0325
Schaafhausen,53.0734,11.0696
Schmarsau,53.0869,11.0541
Seedorf,53.12007,11.14837
Sipnitz,53.1134,11.1648
Soven,53.0594,11.1196
Splietau,53.0926,11.1438
Streetz,53.1086,11.0593
Tramm,53.0645,11.0731
Tripkau,53.1054,11.0405
Neu Tramm,53.0595,11.0563
Seybruch,53.10343,11.14903
Gartow,53.0052558798983,11.4043849731445
Falkenmoor,53.0147870908757,11.436806880950902
Gartow,53.0251,11.4604
Laasche,53.0399548194304,11.4149870529175
Nienwalde,53.0051,11.4879
Quarnstedt,53.0258,11.4681
Rondel,53.0108745120271,11.3895064735412
Rucksmoor,53.0034,11.4423
Schwedenschanze,53.0719,11.4384
Göhrde,53.1233118884421,10.846874111022998
Bredenbock,53.1357,10.9522
Dübbekold,53.1465,10.8859
Göhrde,53.1399,10.8794
Govelin,53.14759,10.93613
Kollase,53.1139,10.8986
Mailage,53.1221,10.9108
Metzingen,53.1298,10.9572
Nadlitz,53.14581999999999,10.86839
Plumbohm,53.113969999999995,10.95014
Sarenseck,53.1266,11.01892
Schmardau,53.112140000000004,10.9688599999999
Schmessau,53.1219,10.9418
Schnadlitz,53.12866999999999,10.90484
Tollendorf,53.142540000000004,10.9605300000001
Wedderien,53.0981,10.9481
Zienitz,53.1083,10.8853
Gorleben,53.0477,11.3717
Gorleben,53.047309999999996,11.3561500000001
Meetschow,53.04725,11.38768
Gusborn,53.0745,11.2012
Groß Gusborn,53.0788,11.2165
Klein Gusborn,53.08373,11.194980000000001
Quickborn,53.1065,11.1956
Siemen,53.0541,11.2224
Zadrau,53.05011999999999,11.17566
Hitzacker (Elbe),53.1598,10.9995
Bahrendorf,53.1866,10.9459
Grabau,53.1284,11.0838
Harlingen,53.1503,10.9813
Hitzacker,53.1507,11.0411
Kähmen,53.1188,11.0538
Meudelfitz,53.16118,10.993739999999999
Meudelfitz,53.1606,10.9932
Nienwedel,53.1349,11.0057
Posade,53.1573,10.9627
Pussade,53.1476,10.9854
Sarchem,53.1476,11.0022
Seerau,53.1277,11.0553
Tiesmesland,53.1898,10.9791
Tießau,53.1802,10.9836
Wietzetze bei Hitzacker,53.1845,10.9314
Wussegel,53.0589,11.0786
Eichengrund,53.1535,11.0157
Hagen,53.1437,11.0232
Leitstade,53.1573,10.9026
Höhbeck,53.0561,11.4344
Brünkendorf,53.05605,11.42998
Pevestorf,53.0584,11.4534
Restorf,53.0417,11.4444
Vietze,53.0694,11.4064
Jameln,53.0413,11.0471
Breese im Bruche,53.0518,11.0906
Breselenz,53.0384,11.0612
Breustian,53.0329,11.0344
Jameln,53.0411,11.0768
Langenhorst,53.04291,11.11812
Mehlfien,53.0436,11.0091
Platenlaase,53.0331,11.082239999999999
Teichlosen,53.035109999999996,11.02334
Volkfien,53.0434,11.0329
Wibbese,53.0512,11.0006
Hoheluft,53.0469,11.0217
Jamelner Mühle,53.04581999999999,11.096119999999999
Karwitz,53.0884,11.0166
Dragahn,53.0918,10.9754
Gamehlen,53.070280000000004,11.0264999999999
Karwitz,53.0869,11.0166
Lebbien,53.0856,11.0293
Lenzen,53.0899,11.0095
Nausen,53.0886,11.0022
Pudripp,53.0822,10.9373
Thunpadel,53.0912,11.0284
Pudripp / Bahnhof,53.0734,10.9435
Küsten,52.978480000000005,11.0618899999999
Karmitz,53.0076,11.0627
Klein Witzeetze,53.0261,11.0089
Krummasel,53.0121,11.0484
Saggrian,53.01959,11.0237999999999
Sallahn,53.0249,10.9977
Tolstefanz,53.0043,11.0316
Tüschau,53.0191,11.0182
Oldemühle,52.9984,11.0655
Langendorf,53.105290000000004,11.2431300000001
Lemgow,52.917109815236394,11.283607962951699
Luckau (Wendland),52.92426999999999,11.04552
Lübbow,52.91085142554971,11.181111317444
Lüchow (Wendland),52.9694,11.15616
Neu Darchau,53.228519999999996,10.8877
Prezelle,52.96334,11.4009599999999
Schnackenburg,53.0377386056206,11.5618076507568
Schnega,52.8828,10.8701
Billerbeck,52.8735,10.8726
Gielau,52.8587,10.8511
Gledeberg,52.882290000000005,10.85942
Göhr,52.9004,10.8779
Grotenhof,52.90395,10.89669
Harpe,52.8517,10.8843
Kreyenhagen,52.9232,10.8771
Külitz,52.8677,10.8592
Leisten,52.8772,10.9025
Loitze,52.90469,10.83457
Lütenthien,52.8951,10.8639
Molden,52.89425,10.83227
Oldendorf,52.8917,10.9072
Proitze,52.8912,10.8355
Schäpingen,52.8651,10.8391
Schnega,52.8901,10.8922
Schnega / Bahnhof,52.86936,10.890310000000001
Solkau,52.9102,10.8392
Starrel,52.9204,10.9094
Thune,52.8553,10.9125
Warpke,52.8616,10.8674
Winterweyhe,52.9154,10.8986
Proitzer Mühle,52.8912,10.8455
Oldendorfer Mühle,52.8959,10.9074
Harper Mühle,52.8563,10.8942
Gielauer Mühle,52.8623,10.8569
Bahnhof Varbitz,52.8678,10.8041
Trebel,52.996030000000005,11.31753
Waddeweitz,52.99618,10.95894
Bischof,52.9772,10.9677
Diahren,52.9776,11.0059
Dickfeitzen,52.9871,10.9394
Dommatzen,52.9984,10.9485
Gohlau,53.016880719377795,10.926400814819301
Groß Gaddau,52.9822,10.9814
Groß Wittfeitzen,53.0148,10.9463
Hohenvolkfien,53.0083,10.9032
Kiefen,52.9916,10.9637
Klein Gaddau,52.9832,10.9885
Klein Wittfeitzen,53.0079,10.9474
Kröte,52.9939,10.9303
Kukate,52.997609999999995,10.98226
Maddau,53.0129,10.9622
Marlin,52.9978,11.0178
Salderatzen,52.9855,11.0099
Sareitz,53.0244,10.9581
Schlanze,52.9789,10.9815
Waddeweitz,52.9957,10.9577
Zebelin,52.9927,11.0095
Wittfeitzen,53.0113,10.9468
Woltersdorf,52.9546,11.2184999999999
Wustrow (Wendland),52.9231,11.1294800000001
Zernien,53.070530000000005,10.88492
Lüneburg,53.24480888888889,10.467411111111112
Adendorf,53.28312,10.443810000000001
Amelinghausen,53.12891,10.2141799999999
Artlenburg,53.371759999999995,10.48788
Bardowick,53.295793637486604,10.3866473968505
Barendorf,53.22889,10.52253
Barnstedt,53.13632,10.3724500000001
Barum,53.349140000000006,10.4081
Betzendorf,53.13775,10.31136
Bleckede,53.287009999999995,10.7323
Boitze,53.14945,10.7483
Brietlingen,53.33274,10.443019999999999
Dahlem,53.20398,10.745989999999999
Dahlenburg,53.18829,10.73804
Deutsch Evern,53.200430000000004,10.43267
Echem,53.33741,10.5394699999999
Embsen,53.178180000000005,10.3501
Handorf,53.34321,10.34442
Hittbergen,53.34299,10.58966
Hohnstorf (Elbe),53.36571,10.54359
Kirchgellersen,53.23228,10.2924399999999
Lüdersburg,53.31974,10.57365
Lüneburg,53.24681999999999,10.41178
Mechtersen,53.2831282872923,10.3168737619019
Melbeck,53.17661,10.41098
Nahrendorf,53.174118736436604,10.8168416613769
Neetze,53.26721334257049,10.624974423217699
Oldendorf (Luhe),53.15006999999999,10.21471
Radbruch,53.311780000000006,10.287669999999899
Rehlingen,53.10315,10.22545
Reinstorf,53.235119999999995,10.56907
Reppenstedt,53.249935806686295,10.3497210502625
Dachtmissen,53.2531838674961,10.317858714294301
Rullstorf,53.28576999999999,10.532639999999999
Scharnebeck bei Lüneburg,53.292561638535204,10.5012504760742
Soderstorf,53.1427,10.1467700000001
Südergellersen,53.2121,10.29509
Heiligenthal,53.22217,10.335410000000001
Thomasburg,53.22654,10.6529800000001
Tosterglope,53.2097,10.81987
Vastorf,53.19705,10.5477100000001
Vögelsen,53.27486999999999,10.352210000000001
Wendisch Evern,53.21444,10.47357
Westergellersen,53.235690000000005,10.2456999999999
Wittorf,53.33138,10.38016
Amt Neuhaus,53.280416789256705,10.9184942062379
Osterholz,53.262109090909085,8.830302727272727
Axstedt,53.3539,8.77238999999997
Grasberg bei Bremen,53.18175,8.986980000000019
Hambergen bei Bremen,53.306419999999996,8.823869999999939
Holste,53.36679,8.83321000000001
Lilienthal bei Bremen,53.150059999999996,8.91281000000004
Lübberstedt,53.336969999999994,8.81240000000003
Osterholz-Scharmbeck,53.22769,8.78381999999999
Ritterhude,53.18533000000001,8.74593000000004
Schwanewede,53.22396,8.589690000000019
Vollersode,53.32416,8.910799999999991
Worpswede,53.22016,8.92676000000006
Rotenburg (Wümme),53.252631578947366,9.31257298245614
Ahausen,53.060719999999996,9.310730000000039
Alfstedt bei Bremervörde,53.55426,9.06967
Anderlingen,53.3742790615158,9.30257492065425
Basdahl,53.44454,8.99923000000001
Bötersen,53.136140000000005,9.315879999999991
Bothel,53.070928890253896,9.49995708465576
Breddorf,53.29235,9.07997
Bremervörde,53.48757,9.13896999999997
Brockel,53.096030000000006,9.522040000000061
Bülstedt,53.211009999999995,9.150200000000039
Deinstedt,53.40748000000001,9.224799999999961
Ebersdorf bei Bremervörde,53.52641,9.05169000000001
Elsdorf,53.24075,9.352179999999981
Farven,53.4331,9.32005000000004
Fintel,53.17125,9.669200000000052
Gnarrenburg,53.386390000000006,9.00513000000001
Groß Meckelsen,53.28848000000001,9.450780000000009
Gyhum,53.218740000000004,9.309669999999981
Hamersen,53.255959999999995,9.48104999999998
Hassendorf bei Rotenburg an der Wümme,53.1115,9.27260000000001
Heeslingen,53.31759,9.33294000000001
Hellwege bei Rotenburg an der Wümme,53.0734,9.23912999999993
Helvesiek,53.212819999999994,9.495679999999991
Hemsbünde,53.09052,9.47325999999998
Hemslingen,53.08801999999999,9.600300000000061
Hepstedt,53.259190000000004,9.08596999999997
Hipstedt,53.49556,8.96830999999997
Horstedt,53.17851999999999,9.22992999999997
Kalbe bei Sittensen,53.29408000000001,9.54993000000002
Kirchtimke,53.252233867319795,9.15223159790048
Kirchwalsede,53.020669999999996,9.394659999999929
Klein Meckelsen,53.307390000000005,9.45311000000004
Lauenbrück,53.19903000000001,9.55992000000003
Lengenbostel,53.299380000000006,9.50961000000007
Oerel,53.480109999999996,9.05368999999996
Ostereistedt,53.30218000000001,9.171219999999948
Reeßum,53.1323,9.20573999999999
Rhade bei Zeven,53.3282,9.11375999999996
Rotenburg an der Wümme,53.10845,9.39648999999997
Sandbostel,53.41061,9.13255000000004
Scheeßel,53.16976999999999,9.486920000000051
Seedorf bei Zeven,53.333619999999996,9.23765000000003
Selsingen,53.3731013228853,9.21461006347658
Sittensen,53.28109,9.50548000000003
Sottrum,53.11345,9.2319
Stemmen bei Rotenburg an der Wümme,53.224680000000006,9.553360000000001
Tarmstedt,53.22492,9.079669999999961
Tiste,53.28723000000001,9.53201999999999
Vahlde,53.18234,9.63086999999996
Vierden,53.32946,9.50656000000004
Visselhövede,52.9866701,9.58362
Vorwerk bei Tarmstedt,53.189330000000005,9.15518999999995
Westertimke,53.238530000000004,9.13184000000001
Westerwalsede,53.032090000000004,9.36040000000003
Wilstedt,53.19497,9.09612000000004
Wohnste,53.35625,9.52458000000001
Zeven,53.2953,9.275509999999938
Heidekreis,52.82174347826087,9.66014260869565
Ahlden (Aller),52.758469999999996,9.550709999999981
Bispingen,53.078019999999995,10.00066
Böhme,52.790690000000005,9.47600999999997
Bomlitz,52.90461,9.658120000000052
Buchholz (Aller),52.676680000000005,9.67717
Eickeloh,52.73073,9.60715000000005
Essel,52.690940000000005,9.641709999999991
Bad Fallingbostel,52.8670367866708,9.6955797195435
Frankenfeld,52.76951,9.43078000000003
Gilten,52.70646,9.57465999999999
Grethem,52.727109999999996,9.57514
Hademstorf,52.71325,9.63344000000006
Häuslingen,52.80896,9.39767000000006
Hodenhagen,52.76738,9.59568999999999
Lindwedel,52.615719999999996,9.692959999999971
Munster,52.98887,10.0891300000001
Neuenkirchen,53.032340000000005,9.703639999999949
Rethem (Aller),52.785180000000004,9.37835999999993
Schneverdingen,53.11642,9.792010000000001
Schwarmstedt,52.67965,9.61558000000002
Soltau,52.984140000000004,9.84249
Walsrode,52.861909999999995,9.592809999999991
Wietzendorf,52.91984,9.98235
Stade,53.59925,9.47278
Agathenburg,53.5605,9.53145
Ahlerstedt,53.40495,9.45183999999995
Apensen,53.43723716140121,9.61735664550781
Balje,53.831590000000006,9.1337
Bargstedt,53.45913,9.445310000000001
Beckdorf,53.41376999999999,9.610270000000009
Bliedersdorf,53.48135,9.56988
Brest,53.45081999999999,9.38279
Burweg,53.62387,9.26951
Buxtehude,53.476319999999994,9.70545
Deinste,53.52661,9.44308
Dollern,53.53833,9.54614
Drochtersen,53.710159999999995,9.38451
Düdenbüttel,53.59149,9.34838
Engelschoff,53.6618,9.322410000000001
Estorf,53.57865,9.201210000000001
Fredenbeck,53.52279,9.40081
Freiburg (Elbe),53.82379,9.28382
Großenwörden,53.68006999999999,9.25431
Grünendeich,53.56938,9.61195
Guderhandviertel,53.54784,9.60944
Hammah,53.61756999999999,9.36612
Harsefeld,53.4538,9.50351000000001
Heinbockel,53.57427,9.32633
Himmelpforten,53.61401,9.30557
Hollern-Twielenfleth,53.60426,9.55729
Horneburg,53.506969999999995,9.57553
Jork,53.53224,9.68037
Kranenburg,53.605819999999994,9.206380000000001
Krummendeich,53.83085,9.21058
Kutenholz,53.4877,9.322289999999999
Mittelnkirchen,53.54178,9.62377
Neuenkirchen bei Horneburg,53.532709999999994,9.61432
Nottensdorf,53.48392,9.598469999999999
Oederquart,53.802580000000006,9.23672
Oldendorf,53.59055,9.25603
Sauensiek,53.3834023888238,9.60184535980227
Stade,53.5993,9.47433
Steinkirchen,53.56641,9.611180000000001
Wischhafen,53.773234010299994,9.318608619330002
Uelzen,52.9982724137931,10.576441379310346
Altenmedingen,53.1317,10.597430000000001
Bad Bevensen,53.07956,10.582180000000001
Barum bei Bad Bevensen,53.05078,10.51518
Bienenbüttel,53.138980000000004,10.486139999999999
Bad Bodenteich,52.83651,10.6771
Ebstorf,53.02563000000001,10.41737
Eimke,52.96515,10.3126099999999
Emmendorf,53.02195,10.57273
Gerdau,52.967319999999994,10.4183
Hanstedt,53.04617,10.375010000000001
Himbergen,53.09514,10.73104
Jelmstorf,53.10182,10.521980000000001
Lüder,52.807990000000004,10.66377
Natendorf,53.07986,10.47154
Oetzen,53.0216,10.6748700000001
Rätzlingen,52.976271740570205,10.6760902221681
Römstedt,53.0961,10.64962
Rosche,52.985569999999996,10.76248
Schwienau,53.0002582702164,10.450171661377
Soltendieck,52.874340000000004,10.758330099999998
Stadensen,52.87426,10.5563999999999
Stoetze,53.06608000000001,10.7860499999999
Suderburg,52.89937,10.44312
Suhlendorf,52.92766999999999,10.76507
Uelzen,52.96601,10.55776
Weste,53.05955,10.70327
Wieren,52.887159999999994,10.6571
Wrestedt,52.9054,10.58273
Wriedel,53.03201,10.2996000000001
Verden,52.9670368568939,9.11171248148594
Achim bei Bremen,53.01094499999999,9.037355
Blender,52.92409,9.13357999999994
Dörverden,52.8485,9.23577
Emtinghausen,52.93053214457579,8.96714206878664
Kirchlinteln,52.941230000000004,9.31997000000001
Langwedel,52.980019999999996,9.18256999999994
Morsum,52.95395,9.080580000000051
Ottersberg bei Bremen,53.10958,9.145660000000019
Oyten,53.0589,9.025840000000018
Riede,52.970344275380704,8.93995780944829
Thedinghausen,52.964059999999996,9.01669000000004
Verden (Aller),52.92514,9.23824999999999
Delmenhorst,53.052459999999996,8.63308000000006
Delmenhorst,53.05226999999999,8.63375999999994
Emden,53.36034,7.204920000000019
Oldenburg (Oldenburg),53.150130000000004,8.209830000000009
Oldenburg in Oldenburg,53.15035,8.210630000000041
Osnabrück,52.28183,8.04372000000001
Osnabrück,52.28201,8.04326000000003
Wilhelmshaven,53.53115,8.105890000000041
Wilhelmshaven,53.531119999999994,8.10604999999998
Ammerland,53.21836,8.00072
Apen,53.22065,7.809070000000019
Bad Zwischenahn,53.180522439632206,8.00961303710938
Edewecht,53.126569999999994,7.983579999999959
Rastede,53.245059999999995,8.19907000000001
Westerstede,53.255309999999994,7.925920000000019
Wiefelstede,53.254580000000004,8.11768000000006
Aurich,53.476440801804706,7.48422814941409
Aurich,53.4839,7.51512
Aurich,53.471149513220205,7.48458990478514
Brockzetel,53.4817,7.62886
Dietrichsfeld,53.5349,7.540889999999999
Egels,53.4673,7.520589999999999
Extum,53.4637,7.44992
Georgsfeld,53.4894,7.434889999999999
Haxtum,53.4592,7.456689999999999
Kirchdorf,53.4497,7.47849
Langefeld,53.5146,7.5657
Middels,53.535655553461105,7.603386007843031
Pfalzdorf,53.4981198977425,7.5723334289550595
Plaggenburg,53.5101,7.5439
Popens,53.4574,7.51082
Rahe,53.4542,7.443160000000001
Sandhorst,53.4889,7.49202
Schirum,53.4358,7.50932
Spekendorf,53.51866,7.62558999999999
Tannenhausen,53.5141,7.47398
Walle,53.4786,7.4469199999999995
Wallinghausen,53.4736,7.518339999999999
Wiesens,53.45261333756721,7.55614661376956
Baltrum,53.7278,7.36965
Berumbur,53.5893,7.311210000000001
Großefehn,53.34028000000001,7.60805000000005
Akelsbarg,53.4466,7.5987800000000005
Aurich-Oldendorf,53.415948844822,7.602006613769389
Bagband,53.3781,7.60418
Felde,53.4371,7.5987800000000005
Fiebing,53.3498,7.679180000000001
Holtrop,53.4317,7.5642
Mittegroßefehn,53.3925,7.565180000000001
Ostgroßefehn,53.4011,7.602539999999999
Spetzerfehn,53.3871,7.61769
Strackholt,53.3669,7.6379399999999995
Timmel,53.3655,7.520919999999999
Ulbargen,53.3754,7.5824300000000004
Westgroßefehn,53.3835,7.52692
Wrisse,53.4268,7.587510000000001
Großheide,53.5932,7.363230000000001
Arle,53.6078,7.39381
Berumerfehn,53.5606,7.34617
Coldinne,53.5894,7.37023
Großheide,53.5907,7.34467
Menstede,53.6024,7.38097
Westerende,53.61087,7.3567299999999705
Menstede-Coldinne,53.5961,7.375489999999999
Hage,53.6029,7.284689999999999
Hagermarsch,53.6462,7.2945899999999995
Halbemond,53.5676,7.2847800000000005
Hinte,53.4221,7.19717
Canhusen bei Emden,53.4427,7.2100100000000005
Cirkwehrum,53.4373,7.17225
Groß-Midlum,53.4106,7.16017
Hinte,53.4156,7.19415
Loppersum bei Emden,53.4264,7.235689999999999
Osterhusen,53.4197,7.2047300000000005
Suurhusen,53.4115,7.220460000000001
Westerhusen,53.4111,7.179810000000001
Ihlow,53.4102,7.4029300000000005
Bangstede,53.4214,7.39429
Barstede,53.4326,7.37098
Ihlowerfehn,53.3925,7.430160000000001
Ludwigsdorf,53.4151,7.45443
Ochtelbur,53.4083,7.37098
Ostersander,53.4209,7.52135
Riepe,53.3952,7.348389999999999
Riepsterhammrich,53.3768,7.31913
Simonswolde,53.3714,7.40015
Westerende-Holzloog,53.4416,7.39955
Westerende-Kirchloog,53.44209,7.42177000000004
Juist,53.6768,6.99253
Krummhörn,53.4397,7.09117
Campen bei Emden,53.3997,7.052169999999999
Canum,53.425959999999996,7.11337000000003
Eilsum,53.4735,7.136760000000001
Freepsum,53.4174,7.13525
Greetsiel,53.5011,7.094460000000001
Grimersum,53.4785,7.1730100000000006
Groothusen,53.4355,7.064260000000001
Hamswehrum,53.4301,7.050660000000001
Jennelt,53.4631,7.131469999999999
Loquard,53.3894,7.04585
Manslagt,53.4581,7.06274
Pewsum,53.4341,7.09673
Pilsum,53.4835,7.0635
Rysum,53.3795,7.03459
Upleward,53.4215,7.0476399999999995
Uttum,53.4527,7.155639999999999
Visquard,53.4681,7.09975
Woltzeten,53.4115,7.0906899999999995
Woquard,53.43173,7.0845199999999995
Leezdorf,53.5454,7.3044199999999995
Lütetsburg,53.6002,7.24816
Marienhafe,53.5224,7.27194
Norden,53.5961,7.18947
Bargebur,53.5934,7.22285
Leybuchtpolder,53.5147,7.144310000000001
Neuwesteel,53.5418,7.16621
Norddeich,53.7745,7.1576
Norden,53.5948,7.20095
Ostermarsch,53.6426,7.226089999999999
Süderneuland I,53.5807,7.2153
Süderneuland II,53.5586,7.250039999999999
Tidofeld,53.5952,7.23192
Westermarsch I,53.5699,7.137510000000001
Westermarsch II,53.5907,7.131469999999999
Norderney,53.7072,7.14695
Osteel,53.5405,7.2530600000000005
Rechtsupweg,53.5278,7.32481
Südbrookmerland,53.4755,7.35163
Bedekaspel,53.4369,7.317260000000001
Forlitz-Blaukirchen,53.42699,7.326789999999959
Moordorf,53.4754,7.39955
Moorhusen,53.5232,7.362710000000001
Münkeboe,53.5141,7.3837600000000005
Oldeborg,53.4988,7.3278300000000005
Theene,53.4641,7.351430000000001
Uthwerdum,53.4822,7.33715
Victorbur,53.49719,7.368539999999941
Wiegboldsbur,53.4493,7.353689999999999
Upgant-Schott,53.514430000000004,7.267479999999981
Wiesmoor,53.4129,7.717169999999999
Marcardsmoor,53.4613,7.71374
Voßbarg,53.385630000000006,7.6816099999999805
Wiesederfehn,53.4334,7.7602899999999995
Wiesmoor,53.4137,7.7355100000000006
Zwischenbergen,53.3674,7.682169999999999
Wirdum,53.4776,7.2047300000000005
Dornum,53.6555,7.43019
Nesse,53.6537,7.3772
Dornum,53.6458982437362,7.42933043914798
Dornumergrode,53.6707,7.43535
Dornumersiel,53.6766,7.47387
Neßmersiel,53.6712,7.35605
Roggenstede,53.6316,7.485189999999999
Schwittersum,53.6375,7.4391300000000005
Westdorf,53.6444,7.321219999999999
Westeraccum,53.6501,7.44592
Westeraccumersiel,53.6712,7.47462
Westerbur,53.6577,7.4935
Cloppenburg,52.893592307692316,7.908974615384614
Barßel,53.16661,7.735509999999981
Bösel,53.0031,7.95180000000005
Cappeln (Oldenburg),52.8111232701268,8.11276470367432
Cloppenburg,52.84463,8.05208
Emstek,52.83438,8.15517
Essen (Oldenburg),52.72192,7.9366800000000195
Friesoythe,53.02458000000001,7.85832000000005
Garrel,52.953140000000005,8.02549999999997
Lastrup,52.79514,7.867240000000041
Lindern (Oldenburg),52.84443,7.77994000000001
Löningen,52.73588,7.758749999999959
Molbergen,52.85801,7.92578000000003
Saterland,53.1033,7.6825
Emsland,52.75903728813559,7.456497457627118
Andervenne,52.509609999999995,7.57213999999999
Bawinkel,52.60098000000001,7.40955
Beesten,52.43411999999999,7.50145999999995
Bockhorst,53.035419999999995,7.576649999999971
Börger,52.91482,7.540539999999959
Breddenberg,52.95681,7.6088200000000406
Dersum,52.962469999999996,7.2726099999999905
Dörpen,52.96848000000001,7.34218999999996
Dohren,52.64135,7.59027000000003
Emsbüren,52.39152,7.299650000000041
Esterwegen,52.99278,7.632669999999959
Freren,52.486880000000006,7.54392000000007
Fresenburg,52.88465,7.30951000000005
Geeste,52.60224,7.27211999999997
Gersten,52.572959999999995,7.49526000000003
Groß Berßen,52.770540000000004,7.49292000000003
Handrup,52.564980000000006,7.5760199999999704
Haren (Ems),52.79468000000001,7.23676
Haselünne,52.676030000000004,7.48146999999994
Heede,52.99159,7.301629999999929
